id_mutation,date_mutation,numero_disposition,nature_mutation,valeur_fonciere,adresse_numero,adresse_suffixe,adresse_nom_voie,adresse_code_voie,code_postal,code_commune,nom_commune,code_departement,ancien_code_commune,ancien_nom_commune,id_parcelle,ancien_id_parcelle,numero_volume,lot1_numero,lot1_surface_carrez,lot2_numero,lot2_surface_carrez,lot3_numero,lot3_surface_carrez,lot4_numero,lot4_surface_carrez,lot5_numero,lot5_surface_carrez,nombre_lots,code_type_local,type_local,surface_reelle_bati,nombre_pieces_principales,code_nature_culture,nature_culture,code_nature_culture_speciale,nature_culture_speciale,surface_terrain,longitude,latitude,_source_file,motif_rejet
2022-1664088,2022-09-14,000001,Vente,,9,,RUE DE MARIGNAN,6086,75008,75108,Paris 8e Arrondissement,75,,,75108000AQ0030,,,1018,,1059,,,,,,,,2,2,Appartement,198,6,,,,,,2.305663,48.868233,dvf_2022_75.csv,valeur_fonciere nulle ou absente
2022-1647938,2022-04-19,000001,Vente,,29,,RUE DE ROME,8339,75008,75108,Paris 8e Arrondissement,75,,,75108000BV0008,,,,,,,,,,,,,0,2,Appartement,156,5,S,sols,,,607,2.322854,48.876693,dvf_2022_75.csv,valeur_fonciere nulle ou absente
2022-1671153,2022-04-19,000001,Vente,,47,,BD SAINT JACQUES,8645,75014,75114,Paris 14e Arrondissement,75,,,75114000BP0040,,,,,,,,,,,,,0,2,Appartement,149,3,S,sols,,,1302,2.33674,48.832399,dvf_2022_75.csv,valeur_fonciere nulle ou absente
2023-1348488,2023-05-16,000001,Vente,,34,,ALL VIVALDI,9891,75012,75112,Paris 12e Arrondissement,75,,,75112000CC0067,,,,,,,,,,,,,0,2,Appartement,138,6,S,sols,,,850,2.390231,48.841966,dvf_2023_75.csv,valeur_fonciere nulle ou absente
2022-1647961,2022-04-19,000001,Vente,,158,,RUE PELLEPORT,7228,75020,75120,Paris 20e Arrondissement,75,,,75120000AS0223,,,,,,,,,,,,,0,2,Appartement,119,5,S,sols,,,2953,2.398448,48.872815,dvf_2022_75.csv,valeur_fonciere nulle ou absente
2022-1685314,2022-11-04,000001,Vente,,11,B,RUE BOIS DE BOULOGNE,1065,75016,75116,Paris 16e Arrondissement,75,,,75116000FA0042,,,16,,9,,,,,,,,2,2,Appartement,115,3,,,,,,2.286528,48.875074,dvf_2022_75.csv,valeur_fonciere nulle ou absente
2023-1346569,2023-03-21,000001,Vente,,8,,RUE POPINCOURT,7626,75011,75111,Paris 11e Arrondissement,75,,,75111000BK0114,,,7,119.51,,,,,,,,,1,2,Appartement,114,3,,,,,,2.377987,48.857345,dvf_2023_75.csv,valeur_fonciere nulle ou absente
2022-1647965,2022-04-19,000001,Vente,,117,,RUE DE LA REUNION,8180,75020,75120,Paris 20e Arrondissement,75,,,75120000CT0031,,,,,,,,,,,,,0,2,Appartement,108,6,S,sols,,,788,2.398776,48.857816,dvf_2022_75.csv,valeur_fonciere nulle ou absente
2022-1647949,2022-04-19,000001,Vente,,10,,RUE TRISTAN TZARA,9450,75018,75118,Paris 18e Arrondissement,75,,,75118000CW0067,,,,,,,,,,,,,0,2,Appartement,101,5,S,sols,,,1921,2.365328,48.89532,dvf_2022_75.csv,valeur_fonciere nulle ou absente
2023-1358080,2023-10-27,000001,Vente,,74,,RUE DE LA TOUR,9362,75016,75116,Paris 16e Arrondissement,75,,,75116000DK0023,,,119,,20,,,,,,,,2,2,Appartement,100,5,,,,,,2.28006,48.861225,dvf_2023_75.csv,valeur_fonciere nulle ou absente
2022-1684834,2022-03-10,000001,Adjudication,,99,,RUE DE SEVRES,8955,75006,75106,Paris 6e Arrondissement,75,,,75106000BD0035,,,1097,,1231,,,,,,,,2,2,Appartement,94,3,,,,,,2.321273,48.84818,dvf_2022_75.csv,valeur_fonciere nulle ou absente
2022-1647958,2022-04-19,000001,Vente,,162,B,RUE PELLEPORT,7228,75020,75120,Paris 20e Arrondissement,75,,,75120000AS0138,,,,,,,,,,,,,0,2,Appartement,90,5,S,sols,,,341,2.398117,48.873027,dvf_2022_75.csv,valeur_fonciere nulle ou absente
2022-1688420,2022-06-24,000001,Vente,,29,,RUE POPINCOURT,7626,75011,75111,Paris 11e Arrondissement,75,,,75111000BI0034,,,120,,72,,,,,,,,2,2,Appartement,90,4,,,,,,2.376256,48.858311,dvf_2022_75.csv,valeur_fonciere nulle ou absente
2023-1348485,2023-05-16,000001,Vente,,76,,RUE LECOURBE,5456,75015,75115,Paris 15e Arrondissement,75,,,75115000BZ0025,,,5,,,,,,,,,,1,2,Appartement,87,5,,,,,,2.304924,48.844337,dvf_2023_75.csv,valeur_fonciere nulle ou absente
2022-1645049,2022-03-07,000001,Vente,,7,,SQ GABRIEL FAURE,3899,75017,75117,Paris 17e Arrondissement,75,,,75117000CH0028,,,12,,87,,,,,,,,2,2,Appartement,80,3,,,,,,2.313017,48.885276,dvf_2022_75.csv,valeur_fonciere nulle ou absente
2023-1357480,2023-10-19,000001,Vente,,76,,RUE DE SEVRES,8955,75007,75107,Paris 7e Arrondissement,75,,,75107000BH0022,,,153,,154,,171,,74,,,,4,2,Appartement,65,4,,,,,,2.318053,48.848111,dvf_2023_75.csv,valeur_fonciere nulle ou absente
2022-1645788,2022-03-10,000001,Vente,,16,,RUE DES CLOYS,2157,75018,75118,Paris 18e Arrondissement,75,,,75118000BI0002,,,20,,,,,,,,,,1,2,Appartement,61,3,,,,,,2.340382,48.892788,dvf_2022_75.csv,valeur_fonciere nulle ou absente
2022-1651025,2022-06-21,000001,Vente,,82,,RUE DAMREMONT,2534,75018,75118,Paris 18e Arrondissement,75,,,75118000AW0110,,,10,66.68,24,,,,,,,,2,2,Appartement,58,3,,,,,,2.335588,48.892215,dvf_2022_75.csv,valeur_fonciere nulle ou absente
2023-1349242,2023-05-30,000001,Vente,,93,,BD RASPAIL,8045,75006,75106,Paris 6e Arrondissement,75,,,75106000AV0010,,,130,,66,57.02,,,,,,,2,2,Appartement,56,2,,,,,,2.328471,48.847267,dvf_2023_75.csv,valeur_fonciere nulle ou absente
2023-1355808,2023-09-08,000001,Vente,,43,,BD SAINT GERMAIN,8619,75005,75105,Paris 5e Arrondissement,75,,,75105000AC0006,,,41,,6,53.37,,,,,,,2,2,Appartement,55,3,,,,,,2.349841,48.849458,dvf_2023_75.csv,valeur_fonciere nulle ou absente
2022-1641731,2022-01-20,000001,Vente,,22,,RUE ARTHUR ROZIER,0481,75019,75119,Paris 19e Arrondissement,75,,,75119000DZ0110,,,12,,28,,,,,,,,2,2,Appartement,52,3,,,,,,2.39116,48.878623,dvf_2022_75.csv,valeur_fonciere nulle ou absente
2022-1644280,2022-02-21,000001,Vente,,10,,RUE DE LESDIGUIERES,5616,75004,75104,Paris 4e Arrondissement,75,,,75104000AP0032,,,29,,9,49.85,,,,,,,2,2,Appartement,51,3,,,,,,2.367016,48.852867,dvf_2022_75.csv,valeur_fonciere nulle ou absente
2022-1650867,2022-06-07,000001,Vente,,61,,RUE SAINT ANTOINE,8490,75004,75104,Paris 4e Arrondissement,75,,,75104000AO0155,,,51,43.71,,,,,,,,,1,2,Appartement,46,2,,,,,,2.363726,48.854034,dvf_2022_75.csv,valeur_fonciere nulle ou absente
2023-1328976,2023-05-23,000001,Vente,,124,,AV DE SAINT OUEN,8718,75018,75118,Paris 18e Arrondissement,75,,,75118000AH0086,,,16,44.9,43,,,,,,,,2,2,Appartement,45,2,,,,,,2.328563,48.895261,dvf_2023_75.csv,valeur_fonciere nulle ou absente
2022-1667379,2022-02-24,000001,Vente,,151,,RUE OBERKAMPF,6858,75011,75111,Paris 11e Arrondissement,75,,,75111000AI0042,,,3005,42.34,3159,,,,,,,,2,2,Appartement,42,2,,,,,,2.381355,48.867322,dvf_2022_75.csv,valeur_fonciere nulle ou absente
2022-1646250,2022-03-22,000001,Vente,,19,,RUE DE L ATLAS,0512,75019,75119,Paris 19e Arrondissement,75,,,75119000EW0023,,,144,41.86,,,,,,,,,1,2,Appartement,40,2,,,,,,2.376027,48.875153,dvf_2022_75.csv,valeur_fonciere nulle ou absente
2022-1645549,2022-03-14,000001,Echange,,123,,RUE D ABOUKIR,0040,75002,75102,Paris 2e Arrondissement,75,,,75102000AO0162,,,135,,,,,,,,,,1,2,Appartement,39,2,,,,,,2.350353,48.868914,dvf_2022_75.csv,valeur_fonciere nulle ou absente
2022-1644096,2022-02-09,000001,Vente,,23,,RUE GAUTHEY,3992,75017,75117,Paris 17e Arrondissement,75,,,75117000DH0089,,,31,,39,,4,25.75,40,,41,,5,2,Appartement,37,2,,,,,,2.320558,48.892088,dvf_2022_75.csv,valeur_fonciere nulle ou absente
2023-1357485,2023-09-27,000002,Vente,,157,,RUE SAINT CHARLES,8513,75015,75115,Paris 15e Arrondissement,75,,,75115000ER0015,,,3,,,,,,,,,,1,2,Appartement,37,2,,,,,,2.282157,48.842315,dvf_2023_75.csv,valeur_fonciere nulle ou absente
2022-1675350,2022-06-08,000001,Vente,,12,,RUE JULES CESAR,5063,75012,75112,Paris 12e Arrondissement,75,,,75112000EO0040,,,166,,,,,,,,,,1,2,Appartement,33,1,,,,,,2.369374,48.848546,dvf_2022_75.csv,valeur_fonciere nulle ou absente
2022-1666553,2022-02-18,000001,Vente,,183,,RUE SAINT CHARLES,8513,75015,75115,Paris 15e Arrondissement,75,,,75115000ES0009,,,49,,51,,,,,,,,2,2,Appartement,32,1,,,,,,2.281132,48.84106,dvf_2022_75.csv,valeur_fonciere nulle ou absente
2023-1345177,2023-03-23,000001,Echange,,154,,RUE DE VAUGIRARD,9624,75015,75115,Paris 15e Arrondissement,75,,,75115000CU0011,,,196,,,,,,,,,,1,2,Appartement,30,1,,,,,,2.314114,48.843704,dvf_2023_75.csv,valeur_fonciere nulle ou absente
2023-1327999,2023-04-12,000002,Vente,,13,,RUE DES JEUNEURS,4973,75002,75102,Paris 2e Arrondissement,75,,,75102000AI0091,,,23,,24,,25,,33,,,,4,2,Appartement,29,2,,,,,,2.346148,48.869059,dvf_2023_75.csv,valeur_fonciere nulle ou absente
2022-1652213,2022-06-28,000001,Vente,,83,,RUE ORDENER,6918,75018,75118,Paris 18e Arrondissement,75,,,75118000BJ0059,,,17,,,,,,,,,,1,2,Appartement,22,1,,,,,,2.348052,48.891663,dvf_2022_75.csv,valeur_fonciere nulle ou absente
2022-1678545,2022-07-12,000001,Vente,,77,,RUE DE L OUEST,6978,75014,75114,Paris 14e Arrondissement,75,,,75114000DQ0052,,,108,,,,,,,,,,1,2,Appartement,20,1,,,,,,2.318275,48.83528,dvf_2022_75.csv,valeur_fonciere nulle ou absente
2023-1339170,2023-08-31,000001,Vente,,62,,RUE DE MEAUX,6236,75019,75119,Paris 19e Arrondissement,75,,,75119000ES0012,,,27,,,,,,,,,,1,2,Appartement,19,1,,,,,,2.37476,48.882101,dvf_2023_75.csv,valeur_fonciere nulle ou absente
2022-1667121,2022-03-01,000002,Vente,,74,,CRS DE VINCENNES,9850,75012,75112,Paris 12e Arrondissement,75,,,75112000AB0018,,,39,,,,,,,,,,1,2,Appartement,12,1,,,,,,2.405509,48.84701,dvf_2022_75.csv,valeur_fonciere nulle ou absente
2022-1672165,2022-05-18,000001,Vente,,49,,AV DU MAINE,5922,75014,75114,Paris 14e Arrondissement,75,,,75114000AI0057,,,24,10.29,,,,,,,,,1,2,Appartement,11,2,,,,,,2.322197,48.840328,dvf_2022_75.csv,valeur_fonciere nulle ou absente
2022-1643274,2022-02-17,000001,Vente,,97,T,RUE DU RUISSEAU,8436,75018,75118,Paris 18e Arrondissement,75,,,75118000AY0120,,,,,,,,,,,,,0,,Inconnu,,,S,sols,,,251,2.34222,48.897428,dvf_2022_75.csv,valeur_fonciere nulle ou absente
2022-1646255,2022-03-10,000002,Vente,,18,,RUE NOTRE-DAME DE LORETTE,6832,75009,75109,Paris 9e Arrondissement,75,,,75109000AG0033,,,202,,,,,,,,,,1,3,Dépendance,,0,,,,,,2.338557,48.877956,dvf_2022_75.csv,valeur_fonciere nulle ou absente
2022-1646968,2022-03-30,000001,Vente,,26,,RUE DU SENTIER,8922,75002,75102,Paris 2e Arrondissement,75,,,75102000AH0066,,13,,,,,,,,,,,0,,Inconnu,,,,,,,,2.346839,48.869742,dvf_2022_75.csv,valeur_fonciere nulle ou absente
2022-1647955,2022-04-19,000001,Vente,,,,,,,75120,Paris 20e Arrondissement,75,,,75120000BX0222,,1,,,,,,,,,,,0,,Inconnu,,,,,,,,2.386095,48.867244,dvf_2022_75.csv,valeur_fonciere nulle ou absente
2022-1647970,2022-04-19,000001,Vente,,,,,,,75120,Paris 20e Arrondissement,75,,,75120000BP0006,,1,,,,,,,,,,,0,,Inconnu,,,,,,,,2.407646,48.870985,dvf_2022_75.csv,valeur_fonciere nulle ou absente
2022-1648291,2022-04-27,000001,Vente,,4,,RUE AGRIPPA D AUBIGNE,0092,75004,75104,Paris 4e Arrondissement,75,,,75104000AT0023,,13330,,,,,,,,,,,0,,Inconnu,,,,,,,,2.362757,48.849702,dvf_2022_75.csv,valeur_fonciere nulle ou absente
2022-1648306,2022-04-27,000001,Vente,,4,,RUE AGRIPPA D AUBIGNE,0092,75004,75104,Paris 4e Arrondissement,75,,,75104000AT0023,,1001,,,,,,,,,,,0,,Inconnu,,,,,,,,2.362757,48.849702,dvf_2022_75.csv,valeur_fonciere nulle ou absente
2022-1651379,2022-05-31,000001,Vente,,12,,RUE DE BEARN,0756,75003,75103,Paris 3e Arrondissement,75,,,75103000AN0043,,1,,,,,,,,,,,0,,Inconnu,,,,,,,,2.366878,48.85743,dvf_2022_75.csv,valeur_fonciere nulle ou absente
2022-1657304,2022-09-07,000001,Vente,,,,,,,75120,Paris 20e Arrondissement,75,,,75120000BP0024,,2,,,,,,,,,,,0,,Inconnu,,,,,,,,2.407758,48.872075,dvf_2022_75.csv,valeur_fonciere nulle ou absente
2022-1660932,2022-10-27,000002,Echange,,3,,RUE SAINT GERMAIN L AUXERROIS,8623,75001,75101,Paris 1er Arrondissement,75,,,75101000AN0087,,303,,,,,,,,,,,0,,Inconnu,,,,,,,,2.34534,48.858014,dvf_2022_75.csv,valeur_fonciere nulle ou absente
2022-1666353,2022-02-16,000001,Vente,,5,,AV DE LA PORTE D IVRY,7721,75013,75113,Paris 13e Arrondissement,75,,,75113000CL0013,,1,,,,,,,,,,,0,,Inconnu,,,,,,,,2.371379,48.819647,dvf_2022_75.csv,valeur_fonciere nulle ou absente
2022-1669481,2022-03-31,000001,Vente,,12,Z,RUE MARGUERITE DURAS,6064,75013,75113,Paris 13e Arrondissement,75,,,75113000BV0061,,,,,,,,,,,,,0,,Inconnu,,,S,sols,,,1005,,,dvf_2022_75.csv,valeur_fonciere nulle ou absente
2022-1669496,2022-03-31,000001,Vente,,15,Z,RUE DE BELLIEVRE,0843,75013,75113,Paris 13e Arrondissement,75,,,75113000AG0052,,,,,,,,,,,,,0,,Inconnu,,,S,sols,,,18,,,dvf_2022_75.csv,valeur_fonciere nulle ou absente
2022-1669550,2022-03-25,000001,Vente,,18,,BD GENERAL JEAN SIMON,4034,75013,75113,Paris 13e Arrondissement,75,,,75113000BX0041,,7,,,,,,,,,,,0,,Inconnu,,,,,,,,2.383263,48.826645,dvf_2022_75.csv,valeur_fonciere nulle ou absente
2022-1669982,2022-04-07,000001,Vente,,16,,RUE PICOT,7399,75016,75116,Paris 16e Arrondissement,75,,,75116000ES0032,,,209,,4,58.32,,,,,,,2,4,Local industriel. commercial ou assimilé,68,0,,,,,,2.282825,48.871596,dvf_2022_75.csv,valeur_fonciere nulle ou absente
2022-1677843,2022-07-26,000001,Vente,,28,Z,RUE JORGE SEMPRUN,5009,75012,75112,Paris 12e Arrondissement,75,,,75112000CZ0036,,,,,,,,,,,,,0,,Inconnu,,,S,sols,,,2528,2.384425,48.841661,dvf_2022_75.csv,valeur_fonciere nulle ou absente
2022-1683454,2022-10-11,000001,Vente en l'état futur d'achèvement,,,,,,,75113,Paris 13e Arrondissement,75,,,75113000BR0070,,,50,,,,,,,,,,1,,Inconnu,,,,,,,,2.373369,48.833202,dvf_2022_75.csv,valeur_fonciere nulle ou absente
2022-1684085,2022-10-20,000002,Vente,,7,,RUE SAINT AMAND,8478,75015,75115,Paris 15e Arrondissement,75,,,75115000AG0004,,,881,,,,,,,,,,1,3,Dépendance,,0,,,,,,2.307597,48.836031,dvf_2022_75.csv,valeur_fonciere nulle ou absente
2022-1684399,2022-11-14,000001,Vente,,,,RUE DE CHARENTON,1794,75012,75112,Paris 12e Arrondissement,75,,,75112000BN0026,,,,,,,,,,,,,0,,Inconnu,,,CH,chemin de fer,,,9447,2.399444,48.833053,dvf_2022_75.csv,valeur_fonciere nulle ou absente
2022-1684468,2022-11-08,000001,Vente,,13,,RUE NATIONALE,6693,75013,75113,Paris 13e Arrondissement,75,,,75113000CR0040,,,,,,,,,,,,,0,,Inconnu,,,S,sols,,,87,2.36834,48.822957,dvf_2022_75.csv,valeur_fonciere nulle ou absente
2023-1338857,2023-11-27,000001,Vente,,38,T,RUE MSTISLAV ROSTROPOVITCH,6627,75017,75117,Paris 17e Arrondissement,75,,,75117000CU0090,,13,,,,,,,,,,,0,,Inconnu,,,,,,,,2.312414,48.890575,dvf_2023_75.csv,valeur_fonciere nulle ou absente
2023-1340004,2023-12-14,000001,Vente,,54,,AV CORENTIN CARIOU,2334,75019,75119,Paris 19e Arrondissement,75,,,75119000CB0012,,,,,,,,,,,,,0,,Inconnu,,,CH,chemin de fer,,,20523,2.38853,48.898066,dvf_2023_75.csv,valeur_fonciere nulle ou absente
2023-1345372,2023-03-28,000001,Vente,,12,Z,RUE ALICE DOMON LEONIE DUQUET,0194,75013,75113,Paris 13e Arrondissement,75,,,75113000BW0023,,6,,,,,,,,,,,0,,Inconnu,,,,,,,,2.382532,48.828285,dvf_2023_75.csv,valeur_fonciere nulle ou absente
2023-1355014,2023-09-15,000001,Vente,,9,,RUE DES SAINTS PERES,8767,75006,75106,Paris 6e Arrondissement,75,,,75106000BM0008,,,11,,,,,,,,,,1,3,Dépendance,,0,,,,,,2.332857,48.857244,dvf_2023_75.csv,valeur_fonciere nulle ou absente
2023-1357490,2023-10-27,000001,Vente,,94,,RUE JEANNE D ARC,4930,75013,75113,Paris 13e Arrondissement,75,,,75113000AO0014,,3,,,,,,,,,,,0,,Inconnu,,,,,,,,2.363667,48.833927,dvf_2023_75.csv,valeur_fonciere nulle ou absente
2023-1357801,2023-10-17,000002,Vente,,204,,BD SAINT GERMAIN,8619,75007,75107,Paris 7e Arrondissement,75,,,75107000AD0039,,,20,,,,,,,,,,1,3,Dépendance,,0,,,,,,2.329087,48.855126,dvf_2023_75.csv,valeur_fonciere nulle ou absente
2023-1358020,2023-10-25,000003,Vente,,127,,RUE DU CHEMIN VERT,1966,75011,75111,Paris 11e Arrondissement,75,,,75111000AX0066,,102,,,,,,,,,,,0,,Inconnu,,,,,,,,2.384118,48.862706,dvf_2023_75.csv,valeur_fonciere nulle ou absente
2023-1361361,2023-12-29,000002,Vente,,3,,RUE CHARRIERE,1892,75011,75111,Paris 11e Arrondissement,75,,,75111000CH0026,,,61,,,,,,,,,,1,3,Dépendance,,0,,,,,,2.381913,48.853606,dvf_2023_75.csv,valeur_fonciere nulle ou absente
2022-1688136,2022-12-14,000001,Vente,1.0,8,,PAS TURQUETIL,9512,75011,75111,Paris 11e Arrondissement,75,,,75111000CR0201,,,622,,,,,,,,,,1,2,Appartement,460,5,,,,,,2.393221,48.85143,dvf_2022_75.csv,valeur_fonciere < 1 000 € (transfert symbolique)
2023-1361366,2023-12-18,000003,Vente,14.4,16,,RUE GUYNEMER,4442,75006,75106,Paris 6e Arrondissement,75,,,75106000AM0010,,,26,,27,,28,,29,,,,4,2,Appartement,293,6,,,,,,2.332178,48.847391,dvf_2023_75.csv,valeur_fonciere < 1 000 € (transfert symbolique)
2023-1356870,2023-09-28,000001,Vente,500.0,60,,AV VICTOR HUGO,9761,75016,75116,Paris 16e Arrondissement,75,,,75116000FE0013,,,45,,,,,,,,,,1,2,Appartement,260,6,,,,,,2.28669,48.870681,dvf_2023_75.csv,valeur_fonciere < 1 000 € (transfert symbolique)
2023-1348191,2023-04-25,000001,Vente,500.0,134,,RUE DE GRENELLE,4314,75007,75107,Paris 7e Arrondissement,75,,,75107000AX0020,,,67,,,,,,,,,,1,2,Appartement,243,7,,,,,,2.317883,48.857693,dvf_2023_75.csv,valeur_fonciere < 1 000 € (transfert symbolique)
2023-1336462,2023-09-28,000001,Vente,100.0,26,,RUE ST LOUIS EN L ILE,8678,75004,75104,Paris 4e Arrondissement,75,,,75104000AV0042,,,24,,28,,30,,,,,,3,2,Appartement,238,5,,,,,,2.357695,48.851614,dvf_2023_75.csv,valeur_fonciere < 1 000 € (transfert symbolique)
2022-1686811,2022-12-09,000001,Vente,1.0,34,,RUE DU RANELAGH,8029,75016,75116,Paris 16e Arrondissement,75,,,75116000CK0031,,,63,,,,,,,,,,1,2,Appartement,178,6,,,,,,2.276372,48.854137,dvf_2022_75.csv,valeur_fonciere < 1 000 € (transfert symbolique)
2022-1686817,2022-12-09,000001,Vente,1.0,34,,RUE DU RANELAGH,8029,75016,75116,Paris 16e Arrondissement,75,,,75116000CK0031,,,62,,,,,,,,,,1,2,Appartement,175,5,,,,,,2.276372,48.854137,dvf_2022_75.csv,valeur_fonciere < 1 000 € (transfert symbolique)
2022-1653187,2022-07-18,000001,Vente,600.0,106,,RUE SAINT-HONORE,8635,75001,75101,Paris 1er Arrondissement,75,,,75101000AT0174,,,245,,246,,247,,,,,,3,2,Appartement,171,6,,,,,,2.341996,48.86182,dvf_2022_75.csv,valeur_fonciere < 1 000 € (transfert symbolique)
2022-1677529,2022-07-26,000001,Vente,50.0,144,,AV DE MALAKOFF,5939,75016,75116,Paris 16e Arrondissement,75,,,75116000EZ0013,,,52,,,,,,,,,,1,2,Appartement,171,6,,,,,,2.284288,48.875672,dvf_2022_75.csv,valeur_fonciere < 1 000 € (transfert symbolique)
2022-1665957,2022-02-03,000001,Vente,1.0,2,,AV VION WHITCOMB,9874,75016,75116,Paris 16e Arrondissement,75,,,75116000CN0015,,,51,,,,,,,,,,1,2,Appartement,169,6,,,,,,2.269724,48.85592,dvf_2022_75.csv,valeur_fonciere < 1 000 € (transfert symbolique)
2023-1356936,2023-10-11,000001,Vente,1.0,7,,PL PINEL,7493,75013,75113,Paris 13e Arrondissement,75,,,75113000AP0030,,,361,,,,,,,,,,1,2,Appartement,166,6,,,,,,2.360695,48.833256,dvf_2023_75.csv,valeur_fonciere < 1 000 € (transfert symbolique)
2023-1340243,2023-11-22,000003,Vente,1.0,9,,RUE D EDIMBOURG,3118,75008,75108,Paris 8e Arrondissement,75,,,75108000BX0029,,,39,,,,,,,,,,1,2,Appartement,166,6,,,,,,2.320947,48.879269,dvf_2023_75.csv,valeur_fonciere < 1 000 € (transfert symbolique)
2023-1353322,2023-07-13,000001,Echange,200.0,8,,RUE DU COLONEL COMBES,2201,75007,75107,Paris 7e Arrondissement,75,,,75107000CM0004,,,52,,,,,,,,,,1,2,Appartement,150,3,,,,,,2.305834,48.86186,dvf_2023_75.csv,valeur_fonciere < 1 000 € (transfert symbolique)
2023-1350447,2023-06-16,000001,Vente,7.2,16,,RUE GUYNEMER,4442,75006,75106,Paris 6e Arrondissement,75,,,75106000AM0010,,,32,,33,,,,,,,,2,2,Appartement,150,5,,,,,,2.332178,48.847391,dvf_2023_75.csv,valeur_fonciere < 1 000 € (transfert symbolique)
2023-1361051,2023-12-22,000001,Vente,100.0,21,,AV DE LA MOTTE PICQUET,5308,75007,75107,Paris 7e Arrondissement,75,,,75107000BX0003,,,29,,,,,,,,,,1,2,Appartement,146,5,,,,,,2.308027,48.855549,dvf_2023_75.csv,valeur_fonciere < 1 000 € (transfert symbolique)
2022-1661014,2022-11-24,000001,Vente,1.0,2,,SQ DU ROULE,8398,75008,75108,Paris 8e Arrondissement,75,,,75108000AX0113,,,149,,,,,,,,,,1,2,Appartement,145,4,,,,,,2.299629,48.876786,dvf_2022_75.csv,valeur_fonciere < 1 000 € (transfert symbolique)
2023-1350501,2023-06-16,000001,Vente,7.2,16,,RUE GUYNEMER,4442,75006,75106,Paris 6e Arrondissement,75,,,75106000AM0010,,,30,,31,,,,,,,,2,2,Appartement,145,5,,,,,,2.332178,48.847391,dvf_2023_75.csv,valeur_fonciere < 1 000 € (transfert symbolique)
2023-1336803,2023-09-20,000001,Vente,200.0,81,,RUE DES ARCHIVES,0420,75003,75103,Paris 3e Arrondissement,75,,,75103000AI0024,,,60,,,,,,,,,,1,2,Appartement,144,5,,,,,,2.360278,48.863259,dvf_2023_75.csv,valeur_fonciere < 1 000 € (transfert symbolique)
2023-1336437,2023-09-20,000001,Vente,100.0,81,,RUE DES ARCHIVES,0420,75003,75103,Paris 3e Arrondissement,75,,,75103000AI0024,,,39,,,,,,,,,,1,2,Appartement,144,5,,,,,,2.360278,48.863259,dvf_2023_75.csv,valeur_fonciere < 1 000 € (transfert symbolique)
2023-1332012,2023-07-07,000001,Vente,500.0,9,,RUE DE MONCEAU,6419,75008,75108,Paris 8e Arrondissement,75,,,75108000BC0022,,,100,,,,,,,,,,1,2,Appartement,143,7,,,,,,2.306414,48.875683,dvf_2023_75.csv,valeur_fonciere < 1 000 € (transfert symbolique)
2023-1341393,2023-01-20,000001,Vente,1.0,5,,SQ CHARLES DICKENS,1824,75016,75116,Paris 16e Arrondissement,75,,,75116000CG0074,,,13,,,,,,,,,,1,2,Appartement,140,6,,,,,,2.284659,48.857575,dvf_2023_75.csv,valeur_fonciere < 1 000 € (transfert symbolique)
2023-1332793,2023-07-19,000001,Vente,1.0,24,,RUE DE LA ROCHEFOUCAULD,5356,75009,75109,Paris 9e Arrondissement,75,,,75109000AH0040,,,144,,,,,,,,,,1,2,Appartement,137,6,,,,,,2.334662,48.878463,dvf_2023_75.csv,valeur_fonciere < 1 000 € (transfert symbolique)
2022-1643801,2022-02-16,000001,Vente,1.0,38,,RUE DE TURENNE,9506,75003,75103,Paris 3e Arrondissement,75,,,75103000AN0031,,,123,,124,,,,,,,,2,2,Appartement,136,4,,,,,,2.364992,48.857626,dvf_2022_75.csv,valeur_fonciere < 1 000 € (transfert symbolique)
2023-1353816,2023-08-04,000001,Vente,500.0,24,,RUE DU RANELAGH,8029,75016,75116,Paris 16e Arrondissement,75,,,75116000CD0021,,,21,,,,,,,,,,1,2,Appartement,135,5,,,,,,2.278055,48.853738,dvf_2023_75.csv,valeur_fonciere < 1 000 € (transfert symbolique)
2022-1647228,2022-04-14,000001,Vente,1.0,47,,RUE PIERRE CHARRON,7420,75008,75108,Paris 8e Arrondissement,75,,,75108000AP0025,,,96,,,,,,,,,,1,2,Appartement,135,3,,,,,,2.301878,48.869084,dvf_2022_75.csv,valeur_fonciere < 1 000 € (transfert symbolique)
2022-1650932,2022-06-21,000001,Vente,500.0,96,,BD PEREIRE,7258,75017,75117,Paris 17e Arrondissement,75,,,75117000BE0064,,,58,,,,,,,,,,1,2,Appartement,135,5,,,,,,2.299309,48.886646,dvf_2022_75.csv,valeur_fonciere < 1 000 € (transfert symbolique)
2022-1672261,2022-04-28,000001,Vente,1.0,7,,RUE ST DOMINIQUE,8529,75007,75107,Paris 7e Arrondissement,75,,,75107000AM0003,,,20,,,,,,,,,,1,2,Appartement,134,5,,,,,,2.322817,48.857853,dvf_2022_75.csv,valeur_fonciere < 1 000 € (transfert symbolique)
2022-1663033,2022-12-05,000001,Vente,500.0,16,,RUE DE NAPLES,6675,75008,75108,Paris 8e Arrondissement,75,,,75108000CF0089,,,84,,,,,,,,,,1,2,Appartement,130,4,,,,,,2.319247,48.879914,dvf_2022_75.csv,valeur_fonciere < 1 000 € (transfert symbolique)
2022-1668671,2022-01-25,000001,Vente,200.0,100,B,AV KLEBER,5159,75016,75116,Paris 16e Arrondissement,75,,,75116000FL0112,,,21,,,,,,,,,,1,2,Appartement,129,5,,,,,,2.288076,48.865626,dvf_2022_75.csv,valeur_fonciere < 1 000 € (transfert symbolique)
2023-1350494,2023-06-16,000001,Vente,7.4,16,,RUE GUYNEMER,4442,75006,75106,Paris 6e Arrondissement,75,,,75106000AM0010,,,34,,35,,,,,,,,2,2,Appartement,125,5,,,,,,2.332178,48.847391,dvf_2023_75.csv,valeur_fonciere < 1 000 € (transfert symbolique)
2022-1661424,2022-11-08,000001,Vente,1.0,134,,RUE DU TEMPLE,9191,75003,75103,Paris 3e Arrondissement,75,,,75103000AI0098,,,157,,,,,,,,,,1,2,Appartement,125,4,,,,,,2.358619,48.863447,dvf_2022_75.csv,valeur_fonciere < 1 000 € (transfert symbolique)
2022-1660976,2022-11-21,000001,Vente,500.0,4,,RUE MILNE EDWARDS,6364,75017,75117,Paris 17e Arrondissement,75,,,75117000AW0065,,,42,,,,,,,,,,1,2,Appartement,124,5,,,,,,2.292542,48.88298,dvf_2022_75.csv,valeur_fonciere < 1 000 € (transfert symbolique)
2022-1653842,2022-07-29,000001,Vente,76.2,53,,RUE LA BRUYERE,5211,75009,75109,Paris 9e Arrondissement,75,,,75109000AI0002,,,17,,,,,,,,,,1,2,Appartement,123,5,,,,,,2.331742,48.879797,dvf_2022_75.csv,valeur_fonciere < 1 000 € (transfert symbolique)
2023-1325761,2023-03-15,000001,Vente,1.0,10,,RUE DE MOSCOU,6573,75008,75108,Paris 8e Arrondissement,75,,,75108000BZ0020,,,107,,,,,,,,,,1,2,Appartement,120,4,,,,,,2.32627,48.880224,dvf_2023_75.csv,valeur_fonciere < 1 000 € (transfert symbolique)
2022-1660629,2022-11-09,000001,Vente,500.0,31,,RUE M. ELEONORE DE BELLEFOND,6125,75009,75109,Paris 9e Arrondissement,75,,,75109000BF0017,,,32,,,,,,,,,,1,2,Appartement,116,5,,,,,,2.346219,48.877774,dvf_2022_75.csv,valeur_fonciere < 1 000 € (transfert symbolique)
2023-1355675,2023-09-28,000001,Vente,200.0,19,,RUE ROUSSELET,8400,75007,75107,Paris 7e Arrondissement,75,,,75107000BG0012,,,23,,24,,,,,,,,2,2,Appartement,115,4,,,,,,2.318623,48.849087,dvf_2023_75.csv,valeur_fonciere < 1 000 € (transfert symbolique)
2022-1683600,2022-10-21,000001,Vente,1.0,167,,AV LEDRU ROLLIN,5467,75011,75111,Paris 11e Arrondissement,75,,,75111000BY0061,,,73,,,,,,,,,,1,2,Appartement,113,4,,,,,,2.378649,48.856163,dvf_2022_75.csv,valeur_fonciere < 1 000 € (transfert symbolique)
2022-1649149,2022-05-13,000001,Vente,66.67,83,,BD BEAUMARCHAIS,0783,75003,75103,Paris 3e Arrondissement,75,,,75103000AM0045,,,42,,,,,,,,,,1,2,Appartement,110,4,,,,,,2.367307,48.858777,dvf_2022_75.csv,valeur_fonciere < 1 000 € (transfert symbolique)
2023-1333653,2023-07-20,000001,Vente,1.0,7,,RUE NICOLAS FLAMEL,6757,75004,75104,Paris 4e Arrondissement,75,,,75104000AC0133,,,44,,,,,,,,,,1,2,Appartement,110,4,,,,,,2.349253,48.858962,dvf_2023_75.csv,valeur_fonciere < 1 000 € (transfert symbolique)
2022-1648751,2022-05-10,000001,Vente,1.0,51,B,RUE DE MIROMESNIL,6387,75008,75108,Paris 8e Arrondissement,75,,,75108000CJ0086,,,48,11,,,,,,,,,1,2,Appartement,110,3,,,,,,2.315381,48.87484,dvf_2022_75.csv,valeur_fonciere < 1 000 € (transfert symbolique)
2023-1326811,2023-03-23,000002,Vente,200.0,77,,RUE D ABOUKIR,0040,75002,75102,Paris 2e Arrondissement,75,,,75102000AI0137,,,46,,47,,,,,,,,2,2,Appartement,108,4,,,,,,2.347229,48.867977,dvf_2023_75.csv,valeur_fonciere < 1 000 € (transfert symbolique)
2022-1686280,2022-12-13,000001,Vente,500.0,23,,AV DE LAMBALLE,5294,75016,75116,Paris 16e Arrondissement,75,,,75116000CE0032,,,90,,,,,,,,,,1,2,Appartement,107,4,,,,,,2.279773,48.854325,dvf_2022_75.csv,valeur_fonciere < 1 000 € (transfert symbolique)
2022-1662834,2022-11-28,000001,Vente,500.0,11,,RUE DE TRETAIGNE,9437,75018,75118,Paris 18e Arrondissement,75,,,75118000BI0072,,,43,,,,,,,,,,1,2,Appartement,103,4,,,,,,2.341998,48.892103,dvf_2022_75.csv,valeur_fonciere < 1 000 € (transfert symbolique)
2022-1665914,2022-02-08,000001,Echange,500.0,138,,RUE DE LA POMPE,7587,75016,75116,Paris 16e Arrondissement,75,,,75116000DX0007,,,36,,,,,,,,,,1,2,Appartement,101,4,,,,,,2.281884,48.868595,dvf_2022_75.csv,valeur_fonciere < 1 000 € (transfert symbolique)
2023-1330323,2023-05-05,000001,Vente,500.0,13,,RUE FROISSART,3875,75003,75103,Paris 3e Arrondissement,75,,,75103000AK0043,,,15,,3,,,,,,,,2,2,Appartement,101,4,,,,,,2.365384,48.86158,dvf_2023_75.csv,valeur_fonciere < 1 000 € (transfert symbolique)
2023-1356969,2023-10-06,000001,Vente,2.0,45,,RUE DESCARTES,2724,75005,75105,Paris 5e Arrondissement,75,,,75105000AJ0012,,,80,,,,,,,,,,1,2,Appartement,101,4,,,,,,2.349467,48.845423,dvf_2023_75.csv,valeur_fonciere < 1 000 € (transfert symbolique)
2022-1662705,2022-12-06,000001,Vente,600.0,16,,PL DES VOSGES,9917,75004,75104,Paris 4e Arrondissement,75,,,75104000AO0081,,,45,,46,,47,,,,,,3,2,Appartement,100,4,,,,,,2.366787,48.855494,dvf_2022_75.csv,valeur_fonciere < 1 000 € (transfert symbolique)
2022-1667297,2022-02-24,000001,Vente,100.0,3,,RUE CESAR FRANCK,1659,75015,75115,Paris 15e Arrondissement,75,,,75115000CW0011,,,39,,,,,,,,,,1,2,Appartement,100,4,,,,,,2.310334,48.847265,dvf_2022_75.csv,valeur_fonciere < 1 000 € (transfert symbolique)
2022-1654125,2022-07-27,000001,Vente,500.0,32,,RUE LACROIX,5235,75017,75117,Paris 17e Arrondissement,75,,,75117000DL0008,,,30,,31,,32,,49,,55,,5,2,Appartement,100,3,,,,,,2.323152,48.890625,dvf_2022_75.csv,valeur_fonciere < 1 000 € (transfert symbolique)
2023-1326007,2023-03-20,000001,Vente,500.0,60,,RUE DES TOURNELLES,9382,75003,75103,Paris 3e Arrondissement,75,,,75103000AN0053,,,46,,,,,,,,,,1,2,Appartement,99,4,,,,,,2.367498,48.856914,dvf_2023_75.csv,valeur_fonciere < 1 000 € (transfert symbolique)
2022-1664962,2022-01-14,000001,Vente,800.0,20,,AV DAUMESNIL,2584,75012,75112,Paris 12e Arrondissement,75,,,75112000EN0084,,,41,,,,,,,,,,1,2,Appartement,99,2,,,,,,2.37307,48.848011,dvf_2022_75.csv,valeur_fonciere < 1 000 € (transfert symbolique)
2022-1684323,2022-07-07,000001,Vente,1.0,5,,RUE EDOUARD JACQUES,3146,75014,75114,Paris 14e Arrondissement,75,,,75114000DQ0110,,,21,,,,,,,,,,1,2,Appartement,98,4,,,,,,2.322089,48.835574,dvf_2022_75.csv,valeur_fonciere < 1 000 € (transfert symbolique)
2023-1355050,2023-09-11,000001,Vente,100.0,101,,AV DU GENERAL LECLERC,4063,75014,75114,Paris 14e Arrondissement,75,,,75114000BW0033,,,515,,,,,,,,,,1,2,Appartement,96,4,,,,,,2.326892,48.825672,dvf_2023_75.csv,valeur_fonciere < 1 000 € (transfert symbolique)
2022-1676070,2022-07-05,000002,Echange,500.0,10,,RUE GALILEE,3923,75016,75116,Paris 16e Arrondissement,75,,,75116000FM0015,,,32,,,,,,,,,,1,2,Appartement,95,4,,,,,,2.291574,48.867496,dvf_2022_75.csv,valeur_fonciere < 1 000 € (transfert symbolique)
2022-1658935,2022-09-28,000001,Vente,100.0,125,,RUE PELLEPORT,7228,75020,75120,Paris 20e Arrondissement,75,,,75120000AS0089,,,120,,,,,,,,,,1,2,Appartement,93,3,,,,,,2.397977,48.871964,dvf_2022_75.csv,valeur_fonciere < 1 000 € (transfert symbolique)
2023-1359707,2023-11-28,000001,Vente,1.0,1,,RUE DU REGARD,8092,75006,75106,Paris 6e Arrondissement,75,,,75106000BF0070,,,99,,,,,,,,,,1,2,Appartement,90,4,,,,,,2.326985,48.849334,dvf_2023_75.csv,valeur_fonciere < 1 000 € (transfert symbolique)
2023-1359417,2023-11-16,000002,Vente,904.0,17,,RUE KELLER,5144,75011,75111,Paris 11e Arrondissement,75,,,75111000CD0057,,,113,,114,,115,,116,,117,,5,2,Appartement,90,3,,,,,,2.375596,48.854698,dvf_2023_75.csv,valeur_fonciere < 1 000 € (transfert symbolique)
2023-1350602,2023-06-19,000001,Vente,150.0,56,,BD SAINT MARCEL,8690,75005,75105,Paris 5e Arrondissement,75,,,75105000AR0077,,,133,,,,,,,,,,1,2,Appartement,89,4,,,,,,2.356158,48.83843,dvf_2023_75.csv,valeur_fonciere < 1 000 € (transfert symbolique)
2022-1651554,2022-06-29,000001,Vente,800.0,71,,RUE DE ROME,8339,75008,75108,Paris 8e Arrondissement,75,,,75108000CF0030,,,65,,,,,,,,,,1,2,Appartement,85,4,,,,,,2.320866,48.880725,dvf_2022_75.csv,valeur_fonciere < 1 000 € (transfert symbolique)
2022-1682635,2022-10-07,000001,Vente,100.0,79,,RUE DE SEVRES,8955,75006,75106,Paris 6e Arrondissement,75,,,75106000BD0010,,,35,,,,,,,,,,1,2,Appartement,84,4,,,,,,2.32322,48.849507,dvf_2022_75.csv,valeur_fonciere < 1 000 € (transfert symbolique)
2023-1351055,2023-06-20,000001,Vente,100.0,79,,RUE DE SEVRES,8955,75006,75106,Paris 6e Arrondissement,75,,,75106000BD0010,,,36,,,,,,,,,,1,2,Appartement,84,4,,,,,,2.32322,48.849507,dvf_2023_75.csv,valeur_fonciere < 1 000 € (transfert symbolique)
2022-1686804,2022-12-14,000001,Vente,200.0,8,,PAS TURQUETIL,9512,75011,75111,Paris 11e Arrondissement,75,,,75111000CR0201,,,618,,,,,,,,,,1,2,Appartement,84,1,,,,,,2.393221,48.85143,dvf_2022_75.csv,valeur_fonciere < 1 000 € (transfert symbolique)
2022-1646883,2022-03-25,000001,Vente,250.0,13,,RUE DES HAIES,4452,75020,75120,Paris 20e Arrondissement,75,,,75120000DS0068,,,90,,,,,,,,,,1,2,Appartement,83,4,,,,,,2.400062,48.852828,dvf_2022_75.csv,valeur_fonciere < 1 000 € (transfert symbolique)
2023-1336837,2023-09-20,000001,Vente,100.0,81,,RUE DES ARCHIVES,0420,75003,75103,Paris 3e Arrondissement,75,,,75103000AI0024,,,59,,,,,,,,,,1,2,Appartement,81,3,,,,,,2.360278,48.863259,dvf_2023_75.csv,valeur_fonciere < 1 000 € (transfert symbolique)
2022-1685742,2022-11-23,000002,Vente,500.0,33,B,RUE HENRI BARBUSSE,4535,75005,75105,Paris 5e Arrondissement,75,,,75105000BF0044,,,39,,,,,,,,,,1,2,Appartement,80,3,,,,,,2.33883,48.840746,dvf_2022_75.csv,valeur_fonciere < 1 000 € (transfert symbolique)
2022-1683145,2022-10-05,000001,Vente,500.0,74,,RUE DE LA FOLIE MERICOURT,3700,75011,75111,Paris 11e Arrondissement,75,,,75111000AM0079,,,47,,,,,,,,,,1,2,Appartement,80,3,,,,,,2.370896,48.865642,dvf_2022_75.csv,valeur_fonciere < 1 000 € (transfert symbolique)
2022-1669999,2022-04-06,000001,Vente,100.0,118,,RUE DU CHEMIN VERT,1966,75011,75111,Paris 11e Arrondissement,75,,,75111000BM0033,,,54,,55,,,,,,,,2,2,Appartement,80,3,,,,,,2.383813,48.861769,dvf_2022_75.csv,valeur_fonciere < 1 000 € (transfert symbolique)
2022-1652163,2022-06-17,000001,Vente,100.0,6,,RUE DU CARDINAL MERCIER,1547,75009,75109,Paris 9e Arrondissement,75,,,75109000AB0075,,,49,,,,,,,,,,1,2,Appartement,80,3,,,,,,2.329514,48.880894,dvf_2022_75.csv,valeur_fonciere < 1 000 € (transfert symbolique)
2023-1339914,2023-12-08,000001,Vente,400.0,15,,RUE QUINCAMPOIX,7970,75004,75104,Paris 4e Arrondissement,75,,,75104000AC0116,,,118,,,,,,,,,,1,2,Appartement,80,2,,,,,,2.349619,48.859774,dvf_2023_75.csv,valeur_fonciere < 1 000 € (transfert symbolique)
2023-1333100,2023-07-26,000001,Vente,1.0,24,,RUE DE LA ROCHEFOUCAULD,5356,75009,75109,Paris 9e Arrondissement,75,,,75109000AH0040,,,143,,,,,,,,,,1,2,Appartement,78,3,,,,,,2.334662,48.878463,dvf_2023_75.csv,valeur_fonciere < 1 000 € (transfert symbolique)
2023-1326062,2023-03-21,000001,Vente,1.0,24,,RUE DE LA ROCHEFOUCAULD,5356,75009,75109,Paris 9e Arrondissement,75,,,75109000AH0040,,,141,,,,,,,,,,1,2,Appartement,77,4,,,,,,2.334662,48.878463,dvf_2023_75.csv,valeur_fonciere < 1 000 € (transfert symbolique)
2023-1325096,2023-02-28,000001,Vente,150.0,7,,RUE DU CAMBODGE,1447,75020,75120,Paris 20e Arrondissement,75,,,75120000CE0107,,,118,,,,,,,,,,1,2,Appartement,77,3,,,,,,2.398223,48.865898,dvf_2023_75.csv,valeur_fonciere < 1 000 € (transfert symbolique)
2023-1338792,2023-11-13,000002,Vente,500.0,43,,RUE DE SAINTONGE,8716,75003,75103,Paris 3e Arrondissement,75,,,75103000AH0060,,,141,,142,,,,,,,,2,2,Appartement,76,2,,,,,,2.363575,48.863,dvf_2023_75.csv,valeur_fonciere < 1 000 € (transfert symbolique)
2022-1647735,2022-04-29,000001,Vente,50.0,16,,RUE SAINT ANTOINE,8490,75004,75104,Paris 4e Arrondissement,75,,,75104000AO0178,,,77,,,,,,,,,,1,2,Appartement,75,3,,,,,,2.366593,48.853968,dvf_2022_75.csv,valeur_fonciere < 1 000 € (transfert symbolique)
2022-1646549,2022-04-07,000001,Vente,550.0,10,,RUE DU FBG SAINT DENIS,3516,75010,75110,Paris 10e Arrondissement,75,,,75110000AW0072,,,35,,,,,,,,,,1,2,Appartement,75,3,,,,,,2.353229,48.870159,dvf_2022_75.csv,valeur_fonciere < 1 000 € (transfert symbolique)
2022-1667459,2022-03-07,000001,Vente,200.0,20,,AV DE LA REPUBLIQUE,8158,75011,75111,Paris 11e Arrondissement,75,,,75111000AN0071,,,28,,,,,,,,,,1,2,Appartement,75,3,,,,,,2.368594,48.866203,dvf_2022_75.csv,valeur_fonciere < 1 000 € (transfert symbolique)
2023-1339583,2023-10-01,000001,Vente,10.0,34,,RUE VIVIENNE,9893,75002,75102,Paris 2e Arrondissement,75,,,75102000AG0063,,,391,,,,,,,,,,1,2,Appartement,75,2,,,,,,2.341752,48.870724,dvf_2023_75.csv,valeur_fonciere < 1 000 € (transfert symbolique)
2022-1665967,2022-02-09,000001,Vente,1.0,12,,RUE DE MARTIGNAC,6133,75007,75107,Paris 7e Arrondissement,75,,,75107000AX0006,,,35,,,,,,,,,,1,2,Appartement,74,3,,,,,,2.318746,48.858811,dvf_2022_75.csv,valeur_fonciere < 1 000 € (transfert symbolique)
2023-1346674,2023-04-13,000001,Vente,1.0,13,,RUE DE LA FONTAINE AU ROI,3717,75011,75111,Paris 11e Arrondissement,75,,,75111000AC0017,,,53,,,,,,,,,,1,2,Appartement,73,2,,,,,,2.369609,48.868749,dvf_2023_75.csv,valeur_fonciere < 1 000 € (transfert symbolique)
2023-1331603,2023-06-30,000001,Vente,1.0,37,B,AV GAMBETTA,3933,75020,75120,Paris 20e Arrondissement,75,,,75120000CA0070,,,45,,,,,,,,,,1,2,Appartement,73,3,,,,,,2.392922,48.864513,dvf_2023_75.csv,valeur_fonciere < 1 000 € (transfert symbolique)
2023-1336231,2023-09-22,000001,Vente,1.0,39,,AV SIMON BOLIVAR,8978,75019,75119,Paris 19e Arrondissement,75,,,75119000EE0050,,,126,0.2,,,,,,,,,1,2,Appartement,72,3,,,,,,2.38094,48.875785,dvf_2023_75.csv,valeur_fonciere < 1 000 € (transfert symbolique)
2022-1676919,2022-07-06,000001,Vente,1.0,18,,RUE DE LA GARE DE REUILLY,3955,75012,75112,Paris 12e Arrondissement,75,,,75112000CA0003,,,30,9.2,,,,,,,,,1,2,Appartement,71,2,,,,,,2.395018,48.841304,dvf_2022_75.csv,valeur_fonciere < 1 000 € (transfert symbolique)
2022-1663548,2022-12-13,000001,Vente,1.0,32,,RUE LACROIX,5235,75017,75117,Paris 17e Arrondissement,75,,,75117000DL0008,,,61,,,,,,,,,,1,2,Appartement,70,3,,,,,,2.323152,48.890625,dvf_2022_75.csv,valeur_fonciere < 1 000 € (transfert symbolique)
2022-1658961,2022-09-29,000001,Vente,914.69,30,,RUE DES TROIS FRERES,9462,75018,75118,Paris 18e Arrondissement,75,,,75118000BO0093,,,66,,,,,,,,,,1,2,Appartement,70,3,,,,,,2.34066,48.885058,dvf_2022_75.csv,valeur_fonciere < 1 000 € (transfert symbolique)
2023-1345533,2023-03-02,000001,Vente,500.0,50,,BD DE LA TOUR MAUBOURG,5383,75007,75107,Paris 7e Arrondissement,75,,,75107000BZ0089,,,50,,,,,,,,,,1,2,Appartement,70,2,,,,,,2.309726,48.858958,dvf_2023_75.csv,valeur_fonciere < 1 000 € (transfert symbolique)
2022-1678756,2022-07-26,000001,Vente,50.0,144,,AV DE MALAKOFF,5939,75016,75116,Paris 16e Arrondissement,75,,,75116000EZ0013,,,58,,,,,,,,,,1,2,Appartement,69,4,,,,,,2.284288,48.875672,dvf_2022_75.csv,valeur_fonciere < 1 000 € (transfert symbolique)
2023-1339666,2023-12-01,000001,Vente,100.0,67,,RUE SAINT-HONORE,8635,75001,75101,Paris 1er Arrondissement,75,,,75101000AT0067,,,16,,,,,,,,,,1,2,Appartement,69,3,,,,,,2.344317,48.860807,dvf_2023_75.csv,valeur_fonciere < 1 000 € (transfert symbolique)
2022-1644305,2022-03-01,000001,Vente,1.0,78,,RUE DE BELLEVILLE,0833,75020,75120,Paris 20e Arrondissement,75,,,75120000AC0011,,,46,,,,,,,,,,1,2,Appartement,68,4,,,,,,2.384238,48.873336,dvf_2022_75.csv,valeur_fonciere < 1 000 € (transfert symbolique)
2023-1326451,2023-03-22,000001,Vente,314.14,9,,RUE ALEXANDRE PARODI,0159,75010,75110,Paris 10e Arrondissement,75,,,75110000BW0033,,,63,,,,,,,,,,1,2,Appartement,67,3,,,,,,2.365551,48.879581,dvf_2023_75.csv,valeur_fonciere < 1 000 € (transfert symbolique)
2022-1650346,2022-06-09,000002,Vente,100.0,56,,BD ORNANO,6946,75018,75118,Paris 18e Arrondissement,75,,,75118000BF0038,,,30,,,,,,,,,,1,2,Appartement,66,2,,,,,,2.346765,48.895499,dvf_2022_75.csv,valeur_fonciere < 1 000 € (transfert symbolique)
2023-1333952,2023-08-02,000001,Vente,100.0,46,,RUE DE LA MARE,6039,75020,75120,Paris 20e Arrondissement,75,,,75120000AP0010,,,95,,,,,,,,,,1,2,Appartement,65,3,,,,,,2.390439,48.871249,dvf_2023_75.csv,valeur_fonciere < 1 000 € (transfert symbolique)
2022-1652171,2022-06-17,000001,Vente,100.0,6,,RUE DU CARDINAL MERCIER,1547,75009,75109,Paris 9e Arrondissement,75,,,75109000AB0075,,,40,,,,,,,,,,1,2,Appartement,65,2,,,,,,2.329514,48.880894,dvf_2022_75.csv,valeur_fonciere < 1 000 € (transfert symbolique)
2023-1331027,2023-06-12,000001,Vente,1.0,96,,RUE DU FBG POISSONNIERE,3512,75010,75110,Paris 10e Arrondissement,75,,,75110000AN0068,,,46,,,,,,,,,,1,2,Appartement,65,4,,,,,,2.349483,48.878139,dvf_2023_75.csv,valeur_fonciere < 1 000 € (transfert symbolique)
2022-1682018,2022-09-22,000001,Vente,400.0,33,,RUE SPONTINI,9059,75016,75116,Paris 16e Arrondissement,75,,,75116000EA0102,,,12,,,,,,,,,,1,2,Appartement,65,3,,,,,,2.277815,48.868489,dvf_2022_75.csv,valeur_fonciere < 1 000 € (transfert symbolique)
2022-1642118,2022-01-10,000001,Vente,1.0,4,,RUE DE L AGENT BAILLY,0090,75009,75109,Paris 9e Arrondissement,75,,,75109000BA0088,,,63,5.2,,,,,,,,,1,2,Appartement,64,3,,,,,,2.342284,48.878501,dvf_2022_75.csv,valeur_fonciere < 1 000 € (transfert symbolique)
2023-1334538,2023-08-11,000001,Vente,500.0,39,,RUE BOURSAULT,1214,75017,75117,Paris 17e Arrondissement,75,,,75117000CQ0047,,,67,,,,,,,,,,1,2,Appartement,63,3,,,,,,2.31894,48.884645,dvf_2023_75.csv,valeur_fonciere < 1 000 € (transfert symbolique)
2022-1652010,2022-06-30,000001,Vente,1.0,4,,PL DU MARCHE SAINTE CATHERINE,6031,75004,75104,Paris 4e Arrondissement,75,,,75104000AN0065,,,44,,,,,,,,,,1,2,Appartement,62,3,,,,,,2.363095,48.855407,dvf_2022_75.csv,valeur_fonciere < 1 000 € (transfert symbolique)
2022-1686006,2022-12-05,000001,Vente,1.0,55,,RUE DE SEINE,8913,75006,75106,Paris 6e Arrondissement,75,,,75106000AC0005,,,55,,,,,,,,,,1,2,Appartement,62,3,,,,,,2.337186,48.854694,dvf_2022_75.csv,valeur_fonciere < 1 000 € (transfert symbolique)
2023-1358228,2023-11-06,000001,Vente,1.0,101,,RUE DE LA GLACIERE,4201,75013,75113,Paris 13e Arrondissement,75,,,75113000EH0030,,,,,,,,,,,,,0,2,Appartement,62,3,S,sols,,,78,2.342855,48.828224,dvf_2023_75.csv,valeur_fonciere < 1 000 € (transfert symbolique)
2022-1675418,2022-07-01,000001,Vente,370.0,36,,BD VOLTAIRE,9907,75011,75111,Paris 11e Arrondissement,75,,,75111000AO0048,,,9,,,,,,,,,,1,2,Appartement,61,3,,,,,,2.369289,48.863838,dvf_2022_75.csv,valeur_fonciere < 1 000 € (transfert symbolique)
2022-1654581,2022-07-22,000001,Vente,1.0,61,,RUE ALEXANDRE DUMAS,0155,75020,75120,Paris 20e Arrondissement,75,,,75120000CV0016,,,134,18.77,,,,,,,,,1,2,Appartement,61,2,,,,,,,,dvf_2022_75.csv,valeur_fonciere < 1 000 € (transfert symbolique)
2022-1679037,2022-07-27,000001,Vente,50.0,176,,RUE DE LA CONVENTION,2300,75015,75115,Paris 15e Arrondissement,75,,,75115000BN0016,,,38,,,,,,,,,,1,2,Appartement,61,3,,,,,,2.29397,48.838178,dvf_2022_75.csv,valeur_fonciere < 1 000 € (transfert symbolique)
2023-1330656,2023-06-20,000001,Vente,500.0,19,,RUE DE TURIN,9510,75008,75108,Paris 8e Arrondissement,75,,,75108000CD0013,,,30,,,,,,,,,,1,2,Appartement,60,3,,,,,,2.324324,48.881539,dvf_2023_75.csv,valeur_fonciere < 1 000 € (transfert symbolique)
2022-1647044,2022-04-21,000002,Echange,500.0,36,,QUAI DE BETHUNE,0940,75004,75104,Paris 4e Arrondissement,75,,,75104000AU0009,,,32,,,,,,,,,,1,2,Appartement,60,1,,,,,,2.356429,48.8513,dvf_2022_75.csv,valeur_fonciere < 1 000 € (transfert symbolique)
2023-1340680,2023-12-14,000001,Vente,500.0,16,,RUE MAZAGRAN,6226,75010,75110,Paris 10e Arrondissement,75,,,75110000AW0101,,,31,,,,,,,,,,1,2,Appartement,60,3,,,,,,2.351994,48.870707,dvf_2023_75.csv,valeur_fonciere < 1 000 € (transfert symbolique)
2023-1340542,2023-12-28,000001,Vente,1.0,8,,CITE DUPETIT-THOUARS,2996,75003,75103,Paris 3e Arrondissement,75,,,75103000AG0070,,,31,,,,,,,,,,1,2,Appartement,60,4,,,,,,2.362564,48.865909,dvf_2023_75.csv,valeur_fonciere < 1 000 € (transfert symbolique)
2023-1354703,2023-09-01,000001,Vente,50.0,20,,RUE DES CARMES,1554,75005,75105,Paris 5e Arrondissement,75,,,75105000BM0034,,,36,,,,,,,,,,1,2,Appartement,60,2,,,,,,2.347167,48.848701,dvf_2023_75.csv,valeur_fonciere < 1 000 € (transfert symbolique)
2022-1649037,2022-05-12,000001,Vente,1.0,19,,RUE DE LA CHAPELLE,1769,75018,75118,Paris 18e Arrondissement,75,,,75118000CL0007,,,28,,,,,,,,,,1,2,Appartement,60,3,,,,,,2.359401,48.891625,dvf_2022_75.csv,valeur_fonciere < 1 000 € (transfert symbolique)
2022-1670772,2022-04-29,000001,Vente,500.0,8,,PAS GUSTAVE LEPEU,4420,75011,75111,Paris 11e Arrondissement,75,,,75111000BS0230,,,15,,,,,,,,,,1,2,Appartement,59,3,,,,,,2.386816,48.856014,dvf_2022_75.csv,valeur_fonciere < 1 000 € (transfert symbolique)
2023-1339670,2023-12-04,000001,Vente,2.0,60,,RUE DUHESME,2974,75018,75118,Paris 18e Arrondissement,75,,,75118000BH0097,,,33,,,,,,,,,,1,2,Appartement,59,3,,,,,,2.342553,48.893047,dvf_2023_75.csv,valeur_fonciere < 1 000 € (transfert symbolique)
2023-1323045,2023-01-23,000001,Vente,762.25,80,,RUE DES RONDEAUX,8345,75020,75120,Paris 20e Arrondissement,75,,,75120000CK0048,,,1,,,,,,,,,,1,2,Appartement,59,3,,,,,,2.396254,48.864608,dvf_2023_75.csv,valeur_fonciere < 1 000 € (transfert symbolique)
2023-1348763,2023-05-16,000002,Echange,500.0,202,,AV DU MAINE,5922,75014,75114,Paris 14e Arrondissement,75,,,75114000CJ0008,,,22,,,,,,,,,,1,2,Appartement,58,3,,,,,,2.325208,48.830373,dvf_2023_75.csv,valeur_fonciere < 1 000 € (transfert symbolique)
2022-1661185,2022-11-07,000001,Vente,5.0,9,,RUE ARISTIDE BRUANT,0444,75018,75118,Paris 18e Arrondissement,75,,,75118000AS0191,,,33,,,,,,,,,,1,2,Appartement,58,3,,,,,,2.335185,48.885553,dvf_2022_75.csv,valeur_fonciere < 1 000 € (transfert symbolique)
2022-1661290,2022-11-22,000001,Vente,5.0,9,,RUE ARISTIDE BRUANT,0444,75018,75118,Paris 18e Arrondissement,75,,,75118000AS0191,,,34,,,,,,,,,,1,2,Appartement,58,3,,,,,,2.335185,48.885553,dvf_2022_75.csv,valeur_fonciere < 1 000 € (transfert symbolique)
2023-1330113,2023-02-20,000002,Vente,500.0,5,,RUE DE NANTES,6671,75019,75119,Paris 19e Arrondissement,75,,,75119000BH0092,,,140,,,,,,,,,,1,2,Appartement,58,2,,,,,,2.382919,48.891216,dvf_2023_75.csv,valeur_fonciere < 1 000 € (transfert symbolique)
2023-1346409,2023-03-30,000001,Vente,500.0,24,,RUE LALO,5283,75016,75116,Paris 16e Arrondissement,75,,,75116000EV0035,,,120,,,,,,,,,,1,2,Appartement,58,2,,,,,,2.279847,48.874444,dvf_2023_75.csv,valeur_fonciere < 1 000 € (transfert symbolique)
2023-1358305,2023-10-20,000001,Vente,500.0,27,,RUE MORAND,6547,75011,75111,Paris 11e Arrondissement,75,,,75111000AE0008,,,201,,,,,,,,,,1,2,Appartement,58,3,,,,,,2.375201,48.869566,dvf_2023_75.csv,valeur_fonciere < 1 000 € (transfert symbolique)
2023-1337275,2023-10-13,000001,Vente,600.0,70,,RUE DU FBG POISSONNIERE,3512,75010,75110,Paris 10e Arrondissement,75,,,75110000AO0043,,,150,,,,,,,,,,1,2,Appartement,57,3,,,,,,2.348731,48.8761,dvf_2023_75.csv,valeur_fonciere < 1 000 € (transfert symbolique)
2023-1359261,2023-11-30,000001,Vente,500.0,68,,RUE DE LA MONTGN STE GENEVIEVE,6448,75005,75105,Paris 5e Arrondissement,75,,,75105000BL0068,,,120,,,,,,,,,,1,2,Appartement,57,3,,,,,,2.347599,48.846862,dvf_2023_75.csv,valeur_fonciere < 1 000 € (transfert symbolique)
2023-1360783,2023-12-21,000001,Vente,100.0,167,,RUE SAINT MAUR,8699,75011,75111,Paris 11e Arrondissement,75,,,75111000AC0071,,,208,,,,,,,,,,1,2,Appartement,57,3,,,,,,2.373088,48.869697,dvf_2023_75.csv,valeur_fonciere < 1 000 € (transfert symbolique)
2022-1662104,2022-12-08,000002,Echange,100.0,8,,RUE DU HUIT MAI 1945,4679,75010,75110,Paris 10e Arrondissement,75,,,75110000AK0024,,,70,,,,,,,,,,1,2,Appartement,57,3,,,,,,2.357215,48.876524,dvf_2022_75.csv,valeur_fonciere < 1 000 € (transfert symbolique)
2022-1660298,2022-10-18,000001,Vente,1.0,110,,RUE DU FBG POISSONNIERE,3512,75010,75110,Paris 10e Arrondissement,75,,,75110000AN0082,,,82,,,,,,,,,,1,2,Appartement,56,2,,,,,,2.349589,48.878909,dvf_2022_75.csv,valeur_fonciere < 1 000 € (transfert symbolique)
2022-1663608,2022-11-28,000001,Vente,1.0,80,,AV DE SAINT OUEN,8718,75018,75118,Paris 18e Arrondissement,75,,,75118000AJ0069,,,27,,,,,,,,,,1,2,Appartement,56,3,,,,,,2.327456,48.892201,dvf_2022_75.csv,valeur_fonciere < 1 000 € (transfert symbolique)
2023-1359353,2023-11-13,000001,Vente,100.0,3,,RUE DE COULMIERS,2375,75014,75114,Paris 14e Arrondissement,75,,,75114000BX0017,,,91,,,,,,,,,,1,2,Appartement,56,4,,,,,,2.325139,48.824453,dvf_2023_75.csv,valeur_fonciere < 1 000 € (transfert symbolique)
2022-1650433,2022-06-02,000001,Vente,200.0,74,,RUE DE MENILMONTANT,6270,75020,75120,Paris 20e Arrondissement,75,,,75120000BW0077,,,62,,,,,,,,,,1,2,Appartement,55,3,,,,,,2.390399,48.868511,dvf_2022_75.csv,valeur_fonciere < 1 000 € (transfert symbolique)
2022-1674396,2022-06-10,000001,Echange,762.25,38,,RUE DE VAUGIRARD,9624,75006,75106,Paris 6e Arrondissement,75,,,75106000AI0023,,,111,,,,,,,,,,1,2,Appartement,55,2,,,,,,2.335177,48.849315,dvf_2022_75.csv,valeur_fonciere < 1 000 € (transfert symbolique)
2023-1338181,2023-11-03,000001,Vente,100.0,20,,RUE SAINT FIACRE,8609,75002,75102,Paris 2e Arrondissement,75,,,75102000AH0048,,,83,,,,,,,,,,1,2,Appartement,55,3,,,,,,2.346078,48.870629,dvf_2023_75.csv,valeur_fonciere < 1 000 € (transfert symbolique)
2023-1353151,2023-07-12,000001,Vente,500.0,209,,BD RASPAIL,8045,75014,75114,Paris 14e Arrondissement,75,,,75114000AE0012,,,159,,,,,,,,,,1,2,Appartement,54,2,,,,,,2.330414,48.8411,dvf_2023_75.csv,valeur_fonciere < 1 000 € (transfert symbolique)
2022-1660553,2022-10-17,000001,Vente,1.0,48,,AV DE CLICHY,2112,75018,75118,Paris 18e Arrondissement,75,,,75118000AO0042,,,21,,,,,,,,,,1,2,Appartement,53,2,,,,,,2.326395,48.886436,dvf_2022_75.csv,valeur_fonciere < 1 000 € (transfert symbolique)
2022-1649344,2022-05-13,000001,Vente,1.0,130,,RUE VIEILLE DU TEMPLE,9783,75003,75103,Paris 3e Arrondissement,75,,,75103000AK0051,,,22,,,,,,,,,,1,2,Appartement,53,2,,,,,,2.364359,48.861647,dvf_2022_75.csv,valeur_fonciere < 1 000 € (transfert symbolique)
2022-1672748,2022-05-16,000001,Vente,1.0,14,,RUE JEAN MACE,4913,75011,75111,Paris 11e Arrondissement,75,,,75111000CH0060,,,49,,,,,,,,,,1,2,Appartement,53,3,,,,,,2.383556,48.853278,dvf_2022_75.csv,valeur_fonciere < 1 000 € (transfert symbolique)
2023-1331316,2023-06-22,000001,Vente,500.0,9,,RUE FRANCOEUR,3791,75018,75118,Paris 18e Arrondissement,75,,,75118000BK0193,,,38,,,,,,,,,,1,2,Appartement,52,3,,,,,,2.341339,48.890333,dvf_2023_75.csv,valeur_fonciere < 1 000 € (transfert symbolique)
2022-1682244,2022-09-30,000001,Echange,500.0,62,,RUE ALBERT,0114,75013,75113,Paris 13e Arrondissement,75,,,75113000CP0078,,,79,,,,,,,,,,1,2,Appartement,52,2,,,,,,2.371762,48.826342,dvf_2022_75.csv,valeur_fonciere < 1 000 € (transfert symbolique)
2023-1325941,2023-03-14,000001,Vente,1.0,12,,RUE DE BUDAPEST,1363,75009,75109,Paris 9e Arrondissement,75,,,75109000AK0067,,,57,,,,,,,,,,1,2,Appartement,52,2,,,,,,2.327638,48.876531,dvf_2023_75.csv,valeur_fonciere < 1 000 € (transfert symbolique)
2023-1325939,2023-03-14,000001,Vente,1.0,12,,RUE DE BUDAPEST,1363,75009,75109,Paris 9e Arrondissement,75,,,75109000AK0067,,,58,,,,,,,,,,1,2,Appartement,52,2,,,,,,2.327638,48.876531,dvf_2023_75.csv,valeur_fonciere < 1 000 € (transfert symbolique)
2023-1339257,2023-11-30,000001,Vente,700.0,33,,RUE D ALSACE,0249,75010,75110,Paris 10e Arrondissement,75,,,75110000AJ0018,,,73,,,,,,,,,,1,2,Appartement,51,3,,,,,,2.358227,48.878649,dvf_2023_75.csv,valeur_fonciere < 1 000 € (transfert symbolique)
2023-1325871,2023-03-16,000001,Vente,200.0,35,,RUE POUCHET,7766,75017,75117,Paris 17e Arrondissement,75,,,75117000DG0085,,,246,2.6,,,,,,,,,1,2,Appartement,50,3,,,,,,2.319608,48.893433,dvf_2023_75.csv,valeur_fonciere < 1 000 € (transfert symbolique)
2023-1332554,2023-06-27,000001,Vente,1.0,17,,RUE RIBLETTE,8196,75020,75120,Paris 20e Arrondissement,75,,,75120000DB0147,,,35,,,,,,,,,,1,2,Appartement,50,3,,,,,,2.406117,48.860176,dvf_2023_75.csv,valeur_fonciere < 1 000 € (transfert symbolique)
2022-1673679,2022-05-25,000001,Vente,750.0,65,,AV DE LA BOURDONNAIS,5202,75007,75107,Paris 7e Arrondissement,75,,,75107000CD0021,,,45,,,,,,,,,,1,2,Appartement,50,2,,,,,,2.301617,48.857124,dvf_2022_75.csv,valeur_fonciere < 1 000 € (transfert symbolique)
2023-1326948,2023-03-23,000001,Vente,200.0,35,,RUE POUCHET,7766,75017,75117,Paris 17e Arrondissement,75,,,75117000DG0085,,,246,,,,,,,,,,1,2,Appartement,50,3,,,,,,2.319608,48.893433,dvf_2023_75.csv,valeur_fonciere < 1 000 € (transfert symbolique)
2022-1656486,2022-09-09,000001,Vente,1.0,4,,PL DU MARCHE SAINTE CATHERINE,6031,75004,75104,Paris 4e Arrondissement,75,,,75104000AN0065,,,43,,,,,,,,,,1,2,Appartement,50,2,,,,,,2.363095,48.855407,dvf_2022_75.csv,valeur_fonciere < 1 000 € (transfert symbolique)
2022-1675511,2022-07-07,000001,Vente,500.0,68,,RUE ALBERT,0114,75013,75113,Paris 13e Arrondissement,75,,,75113000CP0073,,,85,,,,,,,,,,1,2,Appartement,49,2,,,,,,2.371621,48.826722,dvf_2022_75.csv,valeur_fonciere < 1 000 € (transfert symbolique)
2022-1656121,2022-08-23,000001,Vente,1.0,68,,RUE PHILIPPE DE GIRARD,7385,75018,75118,Paris 18e Arrondissement,75,,,75118000DD0066,,,65,,,,,,,,,,1,2,Appartement,49,3,,,,,,2.361064,48.887465,dvf_2022_75.csv,valeur_fonciere < 1 000 € (transfert symbolique)
2023-1331312,2023-06-22,000001,Vente,500.0,9,,RUE FRANCOEUR,3791,75018,75118,Paris 18e Arrondissement,75,,,75118000BK0193,,,23,,,,,,,,,,1,2,Appartement,48,3,,,,,,2.341339,48.890333,dvf_2023_75.csv,valeur_fonciere < 1 000 € (transfert symbolique)
2022-1652823,2022-06-27,000001,Vente,762.24,4,,RUE ARTHUR GROUSSIER,0478,75010,75110,Paris 10e Arrondissement,75,,,75110000BJ0059,,,32,,,,,,,,,,1,2,Appartement,48,3,,,,,,2.370249,48.871722,dvf_2022_75.csv,valeur_fonciere < 1 000 € (transfert symbolique)
2023-1339931,2023-12-13,000001,Vente,1.0,13,,RUE BURQ,1392,75018,75118,Paris 18e Arrondissement,75,,,75118000AS0062,,,19,,,,,,,,,,1,2,Appartement,48,2,,,,,,2.336311,48.886506,dvf_2023_75.csv,valeur_fonciere < 1 000 € (transfert symbolique)
2022-1664273,2022-01-04,000001,Vente,500.0,81,,RUE DE L EGLISE,3177,75015,75115,Paris 15e Arrondissement,75,,,75115000EK0040,,,193,,,,,,,,,,1,2,Appartement,48,2,,,,,,2.291367,48.843418,dvf_2022_75.csv,valeur_fonciere < 1 000 € (transfert symbolique)
2023-1324736,2023-02-01,000002,Vente,200.0,2,,IMP GIRARDON,4190,75018,75118,Paris 18e Arrondissement,75,,,75118000AU0087,,,14,,,,,,,,,,1,2,Appartement,47,3,,,,,,2.33738,48.887895,dvf_2023_75.csv,valeur_fonciere < 1 000 € (transfert symbolique)
2022-1660694,2022-11-08,000001,Vente,320.0,7,,AV GOURGAUD,4243,75017,75117,Paris 17e Arrondissement,75,,,75117000BE0010,,,42,,,,,,,,,,1,2,Appartement,47,2,,,,,,2.296899,48.885994,dvf_2022_75.csv,valeur_fonciere < 1 000 € (transfert symbolique)
2023-1343943,2023-02-14,000001,Vente,500.0,28,,RUE CHARDON LAGACHE,1790,75016,75116,Paris 16e Arrondissement,75,,,75116000AP0123,,,50,,,,,,,,,,1,2,Appartement,47,2,,,,,,2.265597,48.844507,dvf_2023_75.csv,valeur_fonciere < 1 000 € (transfert symbolique)
2022-1658272,2022-09-14,000001,Vente,100.0,33,,RUE POULET,7770,75018,75118,Paris 18e Arrondissement,75,,,75118000BT0072,,,90,,,,,,,,,,1,2,Appartement,47,2,,,,,,2.350538,48.888047,dvf_2022_75.csv,valeur_fonciere < 1 000 € (transfert symbolique)
2022-1652009,2022-06-27,000001,Vente,1.0,4,,PL DU MARCHE SAINTE CATHERINE,6031,75004,75104,Paris 4e Arrondissement,75,,,75104000AN0065,,,46,,,,,,,,,,1,2,Appartement,47,3,,,,,,2.363095,48.855407,dvf_2022_75.csv,valeur_fonciere < 1 000 € (transfert symbolique)
2022-1671599,2022-04-11,000001,Vente,1.0,48,,RUE DE LA CLEF,2094,75005,75105,Paris 5e Arrondissement,75,,,75105000AK0065,,,37,,,,,,,,,,1,2,Appartement,46,3,,,,,,2.352902,48.842826,dvf_2022_75.csv,valeur_fonciere < 1 000 € (transfert symbolique)
2023-1333925,2023-07-21,000001,Vente,100.0,36,,QUAI DE JEMMAPES,4964,75010,75110,Paris 10e Arrondissement,75,,,75110000BI0042,,,45,,,,,,,,,,1,2,Appartement,46,2,,,,,,2.367641,48.869154,dvf_2023_75.csv,valeur_fonciere < 1 000 € (transfert symbolique)
2022-1673065,2022-05-31,000001,Vente,1.0,31,,RUE DESCARTES,2724,75005,75105,Paris 5e Arrondissement,75,,,75105000AJ0005,,,59,3.1,,,,,,,,,1,2,Appartement,45,3,,,,,,2.349409,48.845694,dvf_2022_75.csv,valeur_fonciere < 1 000 € (transfert symbolique)
2022-1652007,2022-06-27,000001,Vente,1.0,4,,PL DU MARCHE SAINTE CATHERINE,6031,75004,75104,Paris 4e Arrondissement,75,,,75104000AN0065,,,45,,,,,,,,,,1,2,Appartement,45,3,,,,,,2.363095,48.855407,dvf_2022_75.csv,valeur_fonciere < 1 000 € (transfert symbolique)
2023-1334072,2023-07-21,000001,Vente,500.0,16,,RUE MARIE STUART,6084,75002,75102,Paris 2e Arrondissement,75,,,75102000AL0011,,,48,,,,,,,,,,1,2,Appartement,45,2,,,,,,2.347561,48.865125,dvf_2023_75.csv,valeur_fonciere < 1 000 € (transfert symbolique)
2023-1346677,2023-04-11,000001,Vente,380.0,11,,BD DE BELLEVILLE,0832,75011,75111,Paris 11e Arrondissement,75,,,75111000AI0012,,,150,,,,,,,,,,1,2,Appartement,45,2,,,,,,2.381531,48.867796,dvf_2023_75.csv,valeur_fonciere < 1 000 € (transfert symbolique)
2023-1358379,2023-10-25,000001,Vente,1.0,92,,AV HENRI MARTIN,4567,75016,75116,Paris 16e Arrondissement,75,,,75116000EI0013,,,,,,,,,,,,,0,2,Appartement,45,2,S,sols,,,1101,2.269818,48.863603,dvf_2023_75.csv,valeur_fonciere < 1 000 € (transfert symbolique)
2022-1672316,2022-04-26,000001,Vente,570.0,131,,AV PARMENTIER,7067,75011,75111,Paris 11e Arrondissement,75,,,75111000AC0040,,,32,,,,,,,,,,1,2,Appartement,45,2,,,,,,2.371162,48.86945,dvf_2022_75.csv,valeur_fonciere < 1 000 € (transfert symbolique)
2023-1324772,2023-02-10,000002,Echange,750.0,101,,RUE DU FBG SAINT DENIS,3516,75010,75110,Paris 10e Arrondissement,75,,,75110000AP0055,,,218,,,,,,,,,,1,2,Appartement,45,3,,,,,,2.355141,48.874902,dvf_2023_75.csv,valeur_fonciere < 1 000 € (transfert symbolique)
2022-1648893,2022-04-28,000001,Vente,100.0,264,,RUE DU FBG ST MARTIN,3522,75010,75110,Paris 10e Arrondissement,75,,,75110000BY0017,,,47,,,,,,,,,,1,2,Appartement,45,2,,,,,,2.367905,48.883015,dvf_2022_75.csv,valeur_fonciere < 1 000 € (transfert symbolique)
2023-1348835,2023-05-31,000001,Vente,500.0,82,,RUE D ALESIA,0143,75014,75114,Paris 14e Arrondissement,75,,,75114000CI0041,,,51,,,,,,,,,,1,2,Appartement,45,2,,,,,,2.324457,48.828921,dvf_2023_75.csv,valeur_fonciere < 1 000 € (transfert symbolique)
2023-1345677,2023-03-27,000001,Vente,600.0,29,,IMP DU MOULIN VERT,6605,75014,75114,Paris 14e Arrondissement,75,,,75114000CI0041,,,47,,,,,,,,,,1,2,Appartement,44,2,,,,,,2.324457,48.828921,dvf_2023_75.csv,valeur_fonciere < 1 000 € (transfert symbolique)
2023-1357467,2023-10-18,000001,Vente,300.0,80,,RUE BONAPARTE,1087,75006,75106,Paris 6e Arrondissement,75,,,75106000AI0076,,,164,,,,,,,,,,1,2,Appartement,44,2,,,,,,2.332271,48.850037,dvf_2023_75.csv,valeur_fonciere < 1 000 € (transfert symbolique)
2023-1346637,2023-03-27,000001,Vente,1.0,29,,IMP DU MOULIN VERT,6605,75014,75114,Paris 14e Arrondissement,75,,,75114000CI0041,,,49,,50,,,,,,,,2,2,Appartement,44,2,,,,,,2.324457,48.828921,dvf_2023_75.csv,valeur_fonciere < 1 000 € (transfert symbolique)
2023-1331629,2023-06-22,000001,Vente,500.0,9,,RUE FRANCOEUR,3791,75018,75118,Paris 18e Arrondissement,75,,,75118000BK0193,,,43,,,,,,,,,,1,2,Appartement,44,3,,,,,,2.341339,48.890333,dvf_2023_75.csv,valeur_fonciere < 1 000 € (transfert symbolique)
2022-1677527,2022-07-26,000001,Vente,50.0,144,,AV DE MALAKOFF,5939,75016,75116,Paris 16e Arrondissement,75,,,75116000EZ0013,,,50,,51,,,,,,,,2,2,Appartement,44,3,,,,,,2.284288,48.875672,dvf_2022_75.csv,valeur_fonciere < 1 000 € (transfert symbolique)
2023-1358000,2023-10-18,000002,Echange,300.0,80,,RUE BONAPARTE,1087,75006,75106,Paris 6e Arrondissement,75,,,75106000AI0076,,,164,,,,,,,,,,1,2,Appartement,44,2,,,,,,2.332271,48.850037,dvf_2023_75.csv,valeur_fonciere < 1 000 € (transfert symbolique)
2022-1676306,2022-07-12,000001,Vente,500.0,2,,RUE DE LAPPE,5344,75011,75111,Paris 11e Arrondissement,75,,,75111000CC0041,,,51,,,,,,,,,,1,2,Appartement,43,2,,,,,,2.371518,48.854137,dvf_2022_75.csv,valeur_fonciere < 1 000 € (transfert symbolique)
2023-1338122,2023-11-03,000001,Vente,1.0,10,B,AV DE LA GRANDE ARMEE,4271,75017,75117,Paris 17e Arrondissement,75,,,75117000AI0053,,,70,,,,,,,,,,1,2,Appartement,43,2,,,,,,2.292526,48.875246,dvf_2023_75.csv,valeur_fonciere < 1 000 € (transfert symbolique)
2022-1642407,2022-01-11,000001,Vente,100.0,72,,RUE DE BELLEVILLE,0833,75020,75120,Paris 20e Arrondissement,75,,,75120000AC0008,,,55,,,,,,,,,,1,2,Appartement,42,3,,,,,,2.383855,48.873265,dvf_2022_75.csv,valeur_fonciere < 1 000 € (transfert symbolique)
2023-1333452,2023-07-25,000001,Vente,100.0,34,,RUE POULET,7770,75018,75118,Paris 18e Arrondissement,75,,,75118000BT0083,,,52,,,,,,,,,,1,2,Appartement,42,3,,,,,,2.350946,48.887859,dvf_2023_75.csv,valeur_fonciere < 1 000 € (transfert symbolique)
2023-1348657,2023-05-25,000002,Echange,100.0,29,,RUE MONGE,6432,75005,75105,Paris 5e Arrondissement,75,,,75105000AI0041,,,22,,,,,,,,,,1,2,Appartement,42,3,,,,,,2.351618,48.846899,dvf_2023_75.csv,valeur_fonciere < 1 000 € (transfert symbolique)
2023-1332866,2023-07-12,000001,Echange,500.0,16,,RUE JOSEPH DIJON,5012,75018,75118,Paris 18e Arrondissement,75,,,75118000BF0140,,,30,,,,,,,,,,1,2,Appartement,42,3,,,,,,2.346344,48.894256,dvf_2023_75.csv,valeur_fonciere < 1 000 € (transfert symbolique)
2022-1658863,2022-10-07,000003,Vente,300.0,6,,RUE DE BELZUNCE,0853,75010,75110,Paris 10e Arrondissement,75,,,75110000AM0010,,,66,,,,,,,,,,1,2,Appartement,42,3,,,,,,2.352673,48.879465,dvf_2022_75.csv,valeur_fonciere < 1 000 € (transfert symbolique)
2022-1685111,2022-11-15,000001,Vente,500.0,24,,RUE LALO,5283,75016,75116,Paris 16e Arrondissement,75,,,75116000EV0035,,,119,,,,,,,,,,1,2,Appartement,42,2,,,,,,2.279847,48.874444,dvf_2022_75.csv,valeur_fonciere < 1 000 € (transfert symbolique)
2022-1644971,2022-03-01,000001,Vente,100.0,84,,RUE PIXERECOURT,7504,75020,75120,Paris 20e Arrondissement,75,,,75120000AT0006,,,85,,,,,,,,,,1,2,Appartement,42,2,,,,,,2.396251,48.874868,dvf_2022_75.csv,valeur_fonciere < 1 000 € (transfert symbolique)
2022-1651995,2022-06-27,000001,Vente,2.0,4,,PL DU MARCHE SAINTE CATHERINE,6031,75004,75104,Paris 4e Arrondissement,75,,,75104000AN0065,,,48,,,,,,,,,,1,2,Appartement,41,1,,,,,,2.363095,48.855407,dvf_2022_75.csv,valeur_fonciere < 1 000 € (transfert symbolique)
2023-1326637,2023-03-28,000001,Vente,500.0,35,,RUE SAINT PAUL,8723,75004,75104,Paris 4e Arrondissement,75,,,75104000AM0057,,,173,,,,,,,,,,1,2,Appartement,41,2,,,,,,2.361939,48.854198,dvf_2023_75.csv,valeur_fonciere < 1 000 € (transfert symbolique)
2023-1335959,2023-09-20,000001,Vente,501.0,5,,RUE DES ECOUFFES,3106,75004,75104,Paris 4e Arrondissement,75,,,75104000AJ0092,,,93,,94,,,,,,,,2,2,Appartement,41,2,,,,,,2.358128,48.856631,dvf_2023_75.csv,valeur_fonciere < 1 000 € (transfert symbolique)
2022-1658862,2022-10-07,000001,Vente,150.0,6,,RUE DE BELZUNCE,0853,75010,75110,Paris 10e Arrondissement,75,,,75110000AM0010,,,60,,,,,,,,,,1,2,Appartement,40,3,,,,,,2.352673,48.879465,dvf_2022_75.csv,valeur_fonciere < 1 000 € (transfert symbolique)
2022-1646904,2022-03-25,000001,Vente,250.0,13,,RUE DES HAIES,4452,75020,75120,Paris 20e Arrondissement,75,,,75120000DS0068,,,87,,,,,,,,,,1,2,Appartement,40,2,,,,,,2.400062,48.852828,dvf_2022_75.csv,valeur_fonciere < 1 000 € (transfert symbolique)
2022-1646887,2022-03-25,000001,Vente,250.0,13,,RUE DES HAIES,4452,75020,75120,Paris 20e Arrondissement,75,,,75120000DS0068,,,91,,,,,,,,,,1,2,Appartement,40,2,,,,,,2.400062,48.852828,dvf_2022_75.csv,valeur_fonciere < 1 000 € (transfert symbolique)
2022-1669688,2022-03-15,000001,Vente,100.0,7,,CITE INDUSTRIELLE,4711,75011,75111,Paris 11e Arrondissement,75,,,75111000BL0085,,,12,,,,,,,,,,1,2,Appartement,40,2,,,,,,2.381096,48.858313,dvf_2022_75.csv,valeur_fonciere < 1 000 € (transfert symbolique)
2023-1348644,2023-05-24,000001,Vente,1.0,35,,BD AUGUSTE BLANQUI,0541,75013,75113,Paris 13e Arrondissement,75,,,75113000EC0069,,,33,,,,,,,,,,1,2,Appartement,40,2,,,,,,2.351631,48.829721,dvf_2023_75.csv,valeur_fonciere < 1 000 € (transfert symbolique)
2022-1649745,2022-05-28,000001,Vente,870.0,51,,RUE DES BATIGNOLLES,0720,75017,75117,Paris 17e Arrondissement,75,,,75117000CQ0016,,,49,,,,,,,,,,1,2,Appartement,40,2,,,,,,2.319117,48.885613,dvf_2022_75.csv,valeur_fonciere < 1 000 € (transfert symbolique)
2022-1651153,2022-06-21,000001,Vente,500.0,18,,RUE DU FBG SAINT DENIS,3516,75010,75110,Paris 10e Arrondissement,75,,,75110000AW0055,,,61,,,,,,,,,,1,2,Appartement,40,2,,,,,,2.353712,48.870597,dvf_2022_75.csv,valeur_fonciere < 1 000 € (transfert symbolique)
2022-1671476,2022-05-09,000001,Vente,150.0,36,,AV DE SUFFREN,9114,75015,75115,Paris 15e Arrondissement,75,,,75115000DM0009,,,62,,,,,,,,,,1,2,Appartement,39,2,,,,,,2.294782,48.854746,dvf_2022_75.csv,valeur_fonciere < 1 000 € (transfert symbolique)
2022-1658396,2022-09-30,000001,Vente,1.0,40,,RUE D AUBERVILLIERS,0517,75019,75119,Paris 19e Arrondissement,75,,,75119000AA0001,,,43,,44,,,,,,,,2,2,Appartement,39,3,,,,,,2.366663,48.886245,dvf_2022_75.csv,valeur_fonciere < 1 000 € (transfert symbolique)
2023-1360857,2023-12-29,000001,Vente,500.0,8,,RUE DE SAIGON,8472,75016,75116,Paris 16e Arrondissement,75,,,75116000FB0004,,,32,8,,,,,,,,,1,2,Appartement,39,2,,,,,,2.290591,48.874576,dvf_2023_75.csv,valeur_fonciere < 1 000 € (transfert symbolique)
2023-1337116,2023-10-03,000001,Echange,150.0,95,,QUAI DE VALMY,9568,75010,75110,Paris 10e Arrondissement,75,,,75110000BC0001,,,69,,,,,,,,,,1,2,Appartement,39,3,,,,,,2.362716,48.874,dvf_2023_75.csv,valeur_fonciere < 1 000 € (transfert symbolique)
2022-1663511,2022-12-19,000001,Vente,200.0,10,,RUE QUINCAMPOIX,7970,75004,75104,Paris 4e Arrondissement,75,,,75104000AC0104,,,25,,,,,,,,,,1,2,Appartement,39,1,,,,,,2.349901,48.859414,dvf_2022_75.csv,valeur_fonciere < 1 000 € (transfert symbolique)
2022-1662784,2022-11-30,000001,Vente,800.0,28,,RUE PAJOL,7000,75018,75118,Paris 18e Arrondissement,75,,,75118000DA0054,,,26,,,,,,,,,,1,2,Appartement,38,2,,,,,,2.36337,48.890158,dvf_2022_75.csv,valeur_fonciere < 1 000 € (transfert symbolique)
2022-1654816,2022-08-05,000001,Vente,10.0,80,,RUE DOUDEAUVILLE,2921,75018,75118,Paris 18e Arrondissement,75,,,75118000BU0130,,,77,,,,,,,,,,1,2,Appartement,38,2,,,,,,2.351109,48.888679,dvf_2022_75.csv,valeur_fonciere < 1 000 € (transfert symbolique)
2022-1662729,2022-12-02,000001,Vente,800.0,28,,RUE PAJOL,7000,75018,75118,Paris 18e Arrondissement,75,,,75118000DA0054,,,29,,,,,,,,,,1,2,Appartement,38,2,,,,,,2.36337,48.890158,dvf_2022_75.csv,valeur_fonciere < 1 000 € (transfert symbolique)
2022-1667354,2022-02-15,000001,Vente,1.0,39,,RUE VIOLET,9869,75015,75115,Paris 15e Arrondissement,75,,,75115000EF0005,,,42,,,,,,,,,,1,2,Appartement,38,2,,,,,,2.293463,48.847573,dvf_2022_75.csv,valeur_fonciere < 1 000 € (transfert symbolique)
2023-1347104,2023-04-07,000001,Vente,1.0,55,,RUE DE L ABBE CARTON,0004,75014,75114,Paris 14e Arrondissement,75,,,75114000CS0111,,,60,,,,,,,,,,1,2,Appartement,38,2,,,,,,2.318195,48.829083,dvf_2023_75.csv,valeur_fonciere < 1 000 € (transfert symbolique)
2022-1660097,2022-10-11,000001,Vente,1.0,21,,RUE CHAPPE,1773,75018,75118,Paris 18e Arrondissement,75,,,75118000BO0049,,,38,,,,,,,,,,1,2,Appartement,38,2,,,,,,2.341732,48.885173,dvf_2022_75.csv,valeur_fonciere < 1 000 € (transfert symbolique)
2023-1338252,2023-08-30,000001,Vente,1.0,22,,RUE MESLAY,6286,75003,75103,Paris 3e Arrondissement,75,,,75103000AF0009,,,60,,,,,,,,,,1,2,Appartement,38,3,,,,,,2.36027,48.867943,dvf_2023_75.csv,valeur_fonciere < 1 000 € (transfert symbolique)
2023-1329331,2023-06-02,000001,Vente,700.0,83,,RUE VIEILLE DU TEMPLE,9783,75003,75103,Paris 3e Arrondissement,75,,,75103000AP0035,,,45,,,,,,,,,,1,2,Appartement,38,2,,,,,,2.359334,48.859371,dvf_2023_75.csv,valeur_fonciere < 1 000 € (transfert symbolique)
2023-1360090,2023-11-28,000002,Vente,100.0,91,,AV MOZART,6626,75016,75116,Paris 16e Arrondissement,75,,,75116000BV0011,,,26,,,,,,,,,,1,2,Appartement,38,2,,,,,,2.268129,48.851883,dvf_2023_75.csv,valeur_fonciere < 1 000 € (transfert symbolique)
2022-1660587,2022-11-02,000001,Vente,400.0,49,,RUE DES MARTYRS,6147,75009,75109,Paris 9e Arrondissement,75,,,75109000AF0057,,,36,,,,,,,,,,1,2,Appartement,37,2,,,,,,2.339889,48.880134,dvf_2022_75.csv,valeur_fonciere < 1 000 € (transfert symbolique)
2023-1336546,2023-09-14,000001,Vente,1.0,52,,RUE DES TROIS FRERES,9462,75018,75118,Paris 18e Arrondissement,75,,,75118000BO0196,,,65,,,,,,,,,,1,2,Appartement,36,2,,,,,,2.338893,48.885601,dvf_2023_75.csv,valeur_fonciere < 1 000 € (transfert symbolique)
2022-1658864,2022-10-07,000004,Vente,150.0,6,,RUE DE BELZUNCE,0853,75010,75110,Paris 10e Arrondissement,75,,,75110000AM0010,,,64,,,,,,,,,,1,2,Appartement,36,3,,,,,,2.352673,48.879465,dvf_2022_75.csv,valeur_fonciere < 1 000 € (transfert symbolique)
2023-1354799,2023-08-31,000001,Vente,1.0,8,,RUE BAILLOU,0634,75014,75114,Paris 14e Arrondissement,75,,,75114000CS0068,,,89,,,,,,,,,,1,2,Appartement,36,2,,,,,,2.321449,48.829018,dvf_2023_75.csv,valeur_fonciere < 1 000 € (transfert symbolique)
2023-1331613,2023-06-27,000001,Vente,400.0,54,,RUE DES ACACIAS,0045,75017,75117,Paris 17e Arrondissement,75,,,75117000AH0075,,,114,,,,,,,,,,1,2,Appartement,36,2,,,,,,2.293697,48.877666,dvf_2023_75.csv,valeur_fonciere < 1 000 € (transfert symbolique)
2022-1643372,2022-01-31,000001,Vente,750.0,4,,RUE DE PANAMA,7024,75018,75118,Paris 18e Arrondissement,75,,,75118000CF0130,,,103,,,,,,,,,,1,2,Appartement,36,2,,,,,,2.35309,48.887882,dvf_2022_75.csv,valeur_fonciere < 1 000 € (transfert symbolique)
2022-1665893,2022-01-17,000001,Vente,1.0,25,,RUE DU CHAMP DE MARS,1717,75007,75107,Paris 7e Arrondissement,75,,,75107000BW0097,,,40,,,,,,,,,,1,2,Appartement,35,3,,,,,,2.304369,48.855927,dvf_2022_75.csv,valeur_fonciere < 1 000 € (transfert symbolique)
2022-1669965,2022-04-06,000001,Vente,50.0,118,,RUE DU CHEMIN VERT,1966,75011,75111,Paris 11e Arrondissement,75,,,75111000BM0033,,,53,,,,,,,,,,1,2,Appartement,35,2,,,,,,2.383813,48.861769,dvf_2022_75.csv,valeur_fonciere < 1 000 € (transfert symbolique)
2022-1650345,2022-06-14,000001,Vente,1.0,14,,RUE SIMART,8976,75018,75118,Paris 18e Arrondissement,75,,,75118000BJ0097,,,249,,,,,,,,,,1,2,Appartement,35,3,,,,,,2.348245,48.890716,dvf_2022_75.csv,valeur_fonciere < 1 000 € (transfert symbolique)
2022-1662738,2022-12-13,000001,Vente,500.0,34,,RUE DE LANCRY,5315,75010,75110,Paris 10e Arrondissement,75,,,75110000BF0066,,,55,,,,,,,,,,1,2,Appartement,35,2,,,,,,2.361976,48.871044,dvf_2022_75.csv,valeur_fonciere < 1 000 € (transfert symbolique)
2022-1660437,2022-11-03,000001,Vente,440.0,22,,RUE BOYER,1240,75020,75120,Paris 20e Arrondissement,75,,,75120000BV0009,,,62,,,,,,,,,,1,2,Appartement,34,2,,,,,,2.392675,48.868176,dvf_2022_75.csv,valeur_fonciere < 1 000 € (transfert symbolique)
2022-1677878,2022-08-03,000001,Vente,500.0,87,,RUE DE L AMIRAL ROUSSIN,0291,75015,75115,Paris 15e Arrondissement,75,,,75115000BU0014,,,55,,,,,,,,,,1,2,Appartement,34,2,,,,,,2.301311,48.841447,dvf_2022_75.csv,valeur_fonciere < 1 000 € (transfert symbolique)
2023-1357738,2023-10-18,000001,Vente,500.0,14,,RUE SAINT AMBROISE,8481,75011,75111,Paris 11e Arrondissement,75,,,75111000AZ0012,,,34,,,,,,,,,,1,2,Appartement,34,2,,,,,,2.377986,48.862256,dvf_2023_75.csv,valeur_fonciere < 1 000 € (transfert symbolique)
2022-1646775,2022-03-31,000001,Echange,1.0,20,,RUE MYRHA,6654,75018,75118,Paris 18e Arrondissement,75,,,75118000CG0061,,,38,,,,,,,,,,1,2,Appartement,34,2,,,,,,2.354609,48.887429,dvf_2022_75.csv,valeur_fonciere < 1 000 € (transfert symbolique)
2023-1339705,2023-11-22,000001,Vente,1.0,17,,RUE PELLEPORT,7228,75020,75120,Paris 20e Arrondissement,75,,,75120000CM0037,,,182,,,,,,,,,,1,2,Appartement,34,2,,,,,,2.404486,48.862617,dvf_2023_75.csv,valeur_fonciere < 1 000 € (transfert symbolique)
2022-1658928,2022-10-13,000001,Vente,500.0,8,,RUE DE TREVISE,9440,75009,75109,Paris 9e Arrondissement,75,,,75109000AW0058,,,8,,,,,,,,,,1,2,Appartement,33,2,,,,,,2.345258,48.87318,dvf_2022_75.csv,valeur_fonciere < 1 000 € (transfert symbolique)
2022-1660678,2022-11-14,000001,Vente,500.0,18,,RUE EUGENE VARLIN,3442,75010,75110,Paris 10e Arrondissement,75,,,75110000BW0046,,,61,,,,,,,,,,1,2,Appartement,32,1,,,,,,2.363951,48.878938,dvf_2022_75.csv,valeur_fonciere < 1 000 € (transfert symbolique)
2022-1670038,2022-04-06,000001,Vente,50.0,118,,RUE DU CHEMIN VERT,1966,75011,75111,Paris 11e Arrondissement,75,,,75111000BM0033,,,56,,,,,,,,,,1,2,Appartement,32,2,,,,,,2.383813,48.861769,dvf_2022_75.csv,valeur_fonciere < 1 000 € (transfert symbolique)
2023-1357389,2023-10-12,000002,Vente,1.0,8,,RUE DU CHAMP DE L ALOUETTE,1714,75013,75113,Paris 13e Arrondissement,75,,,75113000EP0011,,,81,,,,,,,,,,1,2,Appartement,30,1,,,,,,2.346053,48.832762,dvf_2023_75.csv,valeur_fonciere < 1 000 € (transfert symbolique)
2023-1333560,2023-07-19,000001,Vente,1.0,2,,RUE D ENGHIEN,3284,75010,75110,Paris 10e Arrondissement,75,,,75110000AU0043,,,57,,,,,,,,,,1,2,Appartement,30,2,,,,,,2.353418,48.871705,dvf_2023_75.csv,valeur_fonciere < 1 000 € (transfert symbolique)
2022-1677972,2022-08-03,000001,Vente,500.0,87,,RUE DE L AMIRAL ROUSSIN,0291,75015,75115,Paris 15e Arrondissement,75,,,75115000BU0014,,,57,,,,,,,,,,1,2,Appartement,30,2,,,,,,2.301311,48.841447,dvf_2022_75.csv,valeur_fonciere < 1 000 € (transfert symbolique)
2022-1688347,2022-06-30,000001,Vente,500.0,26,,RUE SAINT BENOIT,8495,75006,75106,Paris 6e Arrondissement,75,,,75106000BL0013,,,46,,,,,,,,,,1,2,Appartement,30,2,,,,,,2.332589,48.854302,dvf_2022_75.csv,valeur_fonciere < 1 000 € (transfert symbolique)
2022-1664068,2022-09-16,000001,Vente,472.0,149,,RUE DU TEMPLE,9191,75003,75103,Paris 3e Arrondissement,75,,,75103000AE0177,,,23,,,,,,,,,,1,2,Appartement,30,2,,,,,,2.358696,48.864041,dvf_2022_75.csv,valeur_fonciere < 1 000 € (transfert symbolique)
2022-1664075,2022-10-21,000002,Vente,100.0,20,,RUE RODIER,8299,75009,75109,Paris 9e Arrondissement,75,,,75109000AZ0065,,,223,,,,,,,,,,1,2,Appartement,30,2,,,,,,2.343128,48.878216,dvf_2022_75.csv,valeur_fonciere < 1 000 € (transfert symbolique)
2022-1648607,2022-05-16,000001,Vente,1.0,79,,RUE PHILIPPE DE GIRARD,7385,75018,75118,Paris 18e Arrondissement,75,,,75118000DD0013,,,69,,,,,,,,,,1,2,Appartement,30,2,,,,,,2.360496,48.887746,dvf_2022_75.csv,valeur_fonciere < 1 000 € (transfert symbolique)
2022-1649236,2022-05-06,000001,Vente,500.0,12,,RUE LAMARCK,5288,75018,75118,Paris 18e Arrondissement,75,,,75118000BN0027,,,396,,,,,,,,,,1,2,Appartement,30,2,,,,,,2.344813,48.887047,dvf_2022_75.csv,valeur_fonciere < 1 000 € (transfert symbolique)
2022-1649240,2022-05-24,000001,Vente,100.0,14,,RUE ELZEVIR,3196,75003,75103,Paris 3e Arrondissement,75,,,75103000AO0048,,,1108,,,,,,,,,,1,2,Appartement,30,1,,,,,,2.362311,48.858615,dvf_2022_75.csv,valeur_fonciere < 1 000 € (transfert symbolique)
2022-1666418,2022-01-27,000001,Vente,500.0,12,,CITE DUPONT,3008,75011,75111,Paris 11e Arrondissement,75,,,75111000AY0039,,,9,,,,,,,,,,1,2,Appartement,30,3,,,,,,2.380742,48.862694,dvf_2022_75.csv,valeur_fonciere < 1 000 € (transfert symbolique)
2022-1674639,2022-06-09,000001,Vente,500.0,52,,RUE JACOB,4771,75006,75106,Paris 6e Arrondissement,75,,,75106000BM0023,,,66,,,,,,,,,,1,2,Appartement,30,2,,,,,,2.332678,48.856226,dvf_2022_75.csv,valeur_fonciere < 1 000 € (transfert symbolique)
2023-1350832,2023-06-14,000001,Vente,1.0,9,,RUE BARBET DE JOUY,0664,75007,75107,Paris 7e Arrondissement,75,,,75107000BD0010,,,156,,158,,165,,,,,,3,2,Appartement,29,2,,,,,,2.317963,48.854331,dvf_2023_75.csv,valeur_fonciere < 1 000 € (transfert symbolique)
2023-1322366,2023-01-04,000001,Vente,500.0,41,,RUE DES TROIS FRERES,9462,75018,75118,Paris 18e Arrondissement,75,,,75118000BO0167,,,58,,,,,,,,,,1,2,Appartement,29,1,,,,,,2.339617,48.88502,dvf_2023_75.csv,valeur_fonciere < 1 000 € (transfert symbolique)
2022-1673296,2022-05-25,000002,Vente,500.0,9,,AV BUGEAUD,1373,75016,75116,Paris 16e Arrondissement,75,,,75116000DX0038,,,,,,,,,,,,,0,2,Appartement,29,1,S,sols,,,546,2.283519,48.86993,dvf_2022_75.csv,valeur_fonciere < 1 000 € (transfert symbolique)
2022-1658660,2022-09-23,000001,Vente,250.0,7,,RUE AFFRE,0086,75018,75118,Paris 18e Arrondissement,75,,,75118000CI0004,,,55,,,,,,,,,,1,2,Appartement,29,2,,,,,,2.355437,48.885499,dvf_2022_75.csv,valeur_fonciere < 1 000 € (transfert symbolique)
2023-1359496,2023-12-04,000001,Vente,500.0,22,,RUE DE PLAISANCE,7510,75014,75114,Paris 14e Arrondissement,75,,,75114000CP0078,,,17,,,,,,,,,,1,2,Appartement,28,1,,,,,,2.319464,48.832855,dvf_2023_75.csv,valeur_fonciere < 1 000 € (transfert symbolique)
2022-1664109,2022-07-13,000001,Vente,1.0,2,,IMP DELIGNY,2679,75017,75117,Paris 17e Arrondissement,75,,,75117000DP0130,,,18,,,,,,,,,,1,2,Appartement,28,2,,,,,,2.322702,48.896187,dvf_2022_75.csv,valeur_fonciere < 1 000 € (transfert symbolique)
2023-1338179,2023-10-24,000001,Vente,100.0,20,,RUE SAINT FIACRE,8609,75002,75102,Paris 2e Arrondissement,75,,,75102000AH0048,,,82,,,,,,,,,,1,2,Appartement,28,1,,,,,,2.346078,48.870629,dvf_2023_75.csv,valeur_fonciere < 1 000 € (transfert symbolique)
2022-1681304,2022-09-28,000001,Vente,500.0,131,,RUE DU THEATRE,9230,75015,75115,Paris 15e Arrondissement,75,,,75115000EF0058,,,53,,,,,,,,,,1,2,Appartement,28,1,,,,,,2.297,48.845855,dvf_2022_75.csv,valeur_fonciere < 1 000 € (transfert symbolique)
2023-1343285,2023-02-16,000001,Vente,1.0,14,,RUE LAHIRE,5270,75013,75113,Paris 13e Arrondissement,75,,,75113000BG0022,,,46,,,,,,,,,,1,2,Appartement,28,2,,,,,,2.366213,48.829829,dvf_2023_75.csv,valeur_fonciere < 1 000 € (transfert symbolique)
2023-1357724,2023-10-18,000001,Vente,500.0,14,,RUE SAINT AMBROISE,8481,75011,75111,Paris 11e Arrondissement,75,,,75111000AZ0012,,,33,,,,,,,,,,1,2,Appartement,28,2,,,,,,2.377986,48.862256,dvf_2023_75.csv,valeur_fonciere < 1 000 € (transfert symbolique)
2022-1669979,2022-04-06,000001,Vente,50.0,118,,RUE DU CHEMIN VERT,1966,75011,75111,Paris 11e Arrondissement,75,,,75111000BM0033,,,50,,,,,,,,,,1,2,Appartement,28,2,,,,,,2.383813,48.861769,dvf_2022_75.csv,valeur_fonciere < 1 000 € (transfert symbolique)
2022-1650571,2022-06-14,000001,Vente,750.0,25,,RUE GUY MOQUET,4440,75017,75117,Paris 17e Arrondissement,75,,,75117000DM0037,,,22,,,,,,,,,,1,2,Appartement,28,2,,,,,,2.322451,48.892071,dvf_2022_75.csv,valeur_fonciere < 1 000 € (transfert symbolique)
2022-1668747,2022-03-23,000001,Vente,805.0,103,,RUE DE VAUGIRARD,9624,75006,75106,Paris 6e Arrondissement,75,,,75106000AX0012,,,45,,,,,,,,,,1,2,Appartement,28,2,,,,,,2.321601,48.845249,dvf_2022_75.csv,valeur_fonciere < 1 000 € (transfert symbolique)
2022-1674453,2022-06-14,000001,Vente,600.0,11,,RUE GINOUX,4186,75015,75115,Paris 15e Arrondissement,75,,,75115000DW0112,,,15,,,,,,,,,,1,2,Appartement,27,1,,,,,,2.287363,48.848118,dvf_2022_75.csv,valeur_fonciere < 1 000 € (transfert symbolique)
2022-1668164,2022-03-02,000001,Vente,50.0,118,,RUE DU CHEMIN VERT,1966,75011,75111,Paris 11e Arrondissement,75,,,75111000BM0033,,,48,,,,,,,,,,1,2,Appartement,27,1,,,,,,2.383813,48.861769,dvf_2022_75.csv,valeur_fonciere < 1 000 € (transfert symbolique)
2022-1659913,2022-10-18,000001,Vente,500.0,52,,RUE DE LA CHAPELLE,1769,75018,75118,Paris 18e Arrondissement,75,,,75118000CZ0003,,,67,,,,,,,,,,1,2,Appartement,27,2,,,,,,2.359923,48.894087,dvf_2022_75.csv,valeur_fonciere < 1 000 € (transfert symbolique)
2022-1661706,2022-11-24,000001,Vente,1.0,36,,RUE DE BAGNOLET,0626,75020,75120,Paris 20e Arrondissement,75,,,75120000CV0120,,,151,,,,,,,,,,1,2,Appartement,27,1,,,,,,2.398048,48.856727,dvf_2022_75.csv,valeur_fonciere < 1 000 € (transfert symbolique)
2023-1337857,2023-11-06,000001,Vente,100.0,136,,RUE MONTMARTRE,6513,75002,75102,Paris 2e Arrondissement,75,,,75102000AI0024,,,63,,,,,,,,,,1,2,Appartement,26,1,,,,,,2.343697,48.868522,dvf_2023_75.csv,valeur_fonciere < 1 000 € (transfert symbolique)
2023-1325617,2023-03-02,000001,Vente,245.0,44,,RUE DE MONTMORENCY,6517,75003,75103,Paris 3e Arrondissement,75,,,75103000AV0079,,,105,,,,,,,,,,1,2,Appartement,26,2,,,,,,2.353499,48.863803,dvf_2023_75.csv,valeur_fonciere < 1 000 € (transfert symbolique)
2023-1347718,2023-05-04,000001,Vente,800.0,1,,PAS D ENFER,3282,75014,75114,Paris 14e Arrondissement,75,,,75114000AD0011,,,294,,,,,,,,,,1,2,Appartement,26,2,,,,,,2.332113,48.838908,dvf_2023_75.csv,valeur_fonciere < 1 000 € (transfert symbolique)
2023-1350387,2023-06-02,000001,Vente,100.0,1,,RUE DES FOSSES ST MARCEL,3751,75005,75105,Paris 5e Arrondissement,75,,,75105000AR0089,,,76,,,,,,,,,,1,2,Appartement,25,1,,,,,,2.356467,48.839477,dvf_2023_75.csv,valeur_fonciere < 1 000 € (transfert symbolique)
2022-1679351,2022-07-05,000001,Vente,300.0,8,B,RUE DES GOBELINS,4211,75013,75113,Paris 13e Arrondissement,75,,,75113000EN0054,,,35,,36,,,,,,,,2,2,Appartement,25,2,,,,,,2.351726,48.835953,dvf_2022_75.csv,valeur_fonciere < 1 000 € (transfert symbolique)
2023-1323637,2023-02-14,000002,Echange,500.0,5,,RUE CLAVEL,2092,75019,75119,Paris 19e Arrondissement,75,,,75119000EC0044,,,135,,,,,,,,,,1,2,Appartement,25,1,,,,,,2.384848,48.874343,dvf_2023_75.csv,valeur_fonciere < 1 000 € (transfert symbolique)
2022-1646697,2022-04-11,000001,Vente,250.0,84,,RUE DES ARCHIVES,0420,75003,75103,Paris 3e Arrondissement,75,,,75103000AI0093,,,34,,,,,,,,,,1,2,Appartement,25,2,,,,,,2.360646,48.863042,dvf_2022_75.csv,valeur_fonciere < 1 000 € (transfert symbolique)
2023-1330352,2023-06-06,000001,Vente,1.0,1,,RUE LA CONDAMINE,5228,75017,75117,Paris 17e Arrondissement,75,,,75117000CN0021,,,70,,,,,,,,,,1,2,Appartement,25,1,,,,,,2.32453,48.887799,dvf_2023_75.csv,valeur_fonciere < 1 000 € (transfert symbolique)
2022-1688157,2022-12-30,000001,Vente,200.0,31,,RUE ST DOMINIQUE,8529,75007,75107,Paris 7e Arrondissement,75,,,75107000AX0035,,,80,,81,,,,,,,,2,2,Appartement,25,1,,,,,,2.320317,48.858887,dvf_2022_75.csv,valeur_fonciere < 1 000 € (transfert symbolique)
2023-1330959,2023-06-16,000001,Vente,100.0,136,,RUE MONTMARTRE,6513,75002,75102,Paris 2e Arrondissement,75,,,75102000AI0024,,,64,,,,,,,,,,1,2,Appartement,25,2,,,,,,2.343697,48.868522,dvf_2023_75.csv,valeur_fonciere < 1 000 € (transfert symbolique)
2022-1676776,2022-06-27,000001,Vente,100.0,67,,QUAI JACQUES CHIRAC,4834,75007,75107,Paris 7e Arrondissement,75,,,75107000CQ0002,,,44,,,,,,,,,,1,2,Appartement,24,1,,,,,,2.295439,48.860163,dvf_2022_75.csv,valeur_fonciere < 1 000 € (transfert symbolique)
2023-1348282,2023-04-28,000001,Vente,500.0,52,,RUE JACOB,4771,75006,75106,Paris 6e Arrondissement,75,,,75106000BM0023,,,67,,,,,,,,,,1,2,Appartement,24,1,,,,,,2.332678,48.856226,dvf_2023_75.csv,valeur_fonciere < 1 000 € (transfert symbolique)
2023-1342034,2023-01-24,000001,Vente,100.0,13,,RUE DE ST SIMON,8762,75007,75107,Paris 7e Arrondissement,75,,,75107000AL0048,,,41,,,,,,,,,,1,2,Appartement,24,1,,,,,,2.323912,48.855933,dvf_2023_75.csv,valeur_fonciere < 1 000 € (transfert symbolique)
2022-1663741,2022-12-20,000001,Vente,500.0,289,,RUE DES PYRENEES,7904,75020,75120,Paris 20e Arrondissement,75,,,75120000BV0057,,,60,,,,,,,,,,1,2,Appartement,24,2,,,,,,2.394727,48.868893,dvf_2022_75.csv,valeur_fonciere < 1 000 € (transfert symbolique)
2022-1650568,2022-06-14,000001,Vente,750.0,25,,RUE GUY MOQUET,4440,75017,75117,Paris 17e Arrondissement,75,,,75117000DM0037,,,23,,,,,,,,,,1,2,Appartement,24,2,,,,,,2.322451,48.892071,dvf_2022_75.csv,valeur_fonciere < 1 000 € (transfert symbolique)
2022-1662878,2022-11-24,000001,Vente,500.0,65,,BD ORNANO,6946,75018,75118,Paris 18e Arrondissement,75,,,75118000BD0061,,,101,,102,,,,,,,,2,2,Appartement,24,1,,,,,,2.345042,48.896615,dvf_2022_75.csv,valeur_fonciere < 1 000 € (transfert symbolique)
2023-1322358,2023-01-12,000001,Vente,100.0,15,,BD BEAUMARCHAIS,0783,75004,75104,Paris 4e Arrondissement,75,,,75104000AO0108,,,44,,,,,,,,,,1,2,Appartement,23,1,,,,,,2.368312,48.854935,dvf_2023_75.csv,valeur_fonciere < 1 000 € (transfert symbolique)
2022-1687359,2022-12-15,000001,Vente,200.0,6,,RUE SIMONET,8982,75013,75113,Paris 13e Arrondissement,75,,,75113000EC0138,,,22,,26,,,,,,,,2,2,Appartement,23,2,,,,,,2.351673,48.828549,dvf_2022_75.csv,valeur_fonciere < 1 000 € (transfert symbolique)
2022-1648670,2022-05-05,000001,Vente,100.0,136,,RUE MONTMARTRE,6513,75002,75102,Paris 2e Arrondissement,75,,,75102000AI0024,,,71,,,,,,,,,,1,2,Appartement,23,1,,,,,,2.343697,48.868522,dvf_2022_75.csv,valeur_fonciere < 1 000 € (transfert symbolique)
2022-1662375,2022-12-08,000001,Vente,100.0,49,,AV TRUDAINE,9484,75009,75109,Paris 9e Arrondissement,75,,,75109000BB0094,,,56,,,,,,,,,,1,2,Appartement,22,2,,,,,,2.341133,48.880658,dvf_2022_75.csv,valeur_fonciere < 1 000 € (transfert symbolique)
2022-1662737,2022-12-15,000001,Vente,800.0,28,,RUE PAJOL,7000,75018,75118,Paris 18e Arrondissement,75,,,75118000DA0054,,,28,,,,,,,,,,1,2,Appartement,22,2,,,,,,2.36337,48.890158,dvf_2022_75.csv,valeur_fonciere < 1 000 € (transfert symbolique)
2022-1655291,2022-08-05,000001,Vente,10.0,46,,RUE DES POISSONNIERS,7564,75018,75118,Paris 18e Arrondissement,75,,,75118000CF0174,,,44,,,,,,,,,,1,2,Appartement,22,2,,,,,,2.351919,48.888831,dvf_2022_75.csv,valeur_fonciere < 1 000 € (transfert symbolique)
2023-1354248,2023-08-04,000001,Vente,1.0,124,,AV EMILE ZOLA,3266,75015,75115,Paris 15e Arrondissement,75,,,75115000DY0022,,,77,,,,,,,,,,1,2,Appartement,22,1,,,,,,2.29148,48.846605,dvf_2023_75.csv,valeur_fonciere < 1 000 € (transfert symbolique)
2023-1325249,2023-03-06,000001,Vente,500.0,16,,RUE MESLAY,6286,75003,75103,Paris 3e Arrondissement,75,,,75103000AF0016,,,64,,,,,,,,,,1,2,Appartement,22,1,,,,,,2.36122,48.867704,dvf_2023_75.csv,valeur_fonciere < 1 000 € (transfert symbolique)
2023-1343790,2023-02-01,000001,Vente,100.0,11,,RUE DE QUATREFAGES,7911,75005,75105,Paris 5e Arrondissement,75,,,75105000AK0097,,,40,,,,,,,,,,1,2,Appartement,22,2,,,,,,2.353998,48.843472,dvf_2023_75.csv,valeur_fonciere < 1 000 € (transfert symbolique)
2022-1646907,2022-03-25,000001,Vente,250.0,13,,RUE DES HAIES,4452,75020,75120,Paris 20e Arrondissement,75,,,75120000DS0068,,,88,,,,,,,,,,1,2,Appartement,22,1,,,,,,2.400062,48.852828,dvf_2022_75.csv,valeur_fonciere < 1 000 € (transfert symbolique)
2023-1339326,2023-11-29,000001,Vente,100.0,30,,RUE CAMBACERES,1443,75008,75108,Paris 8e Arrondissement,75,,,75108000BL0036,,,51,,,,,,,,,,1,2,Appartement,22,1,,,,,,2.317822,48.874085,dvf_2023_75.csv,valeur_fonciere < 1 000 € (transfert symbolique)
2023-1337486,2023-10-31,000001,Vente,700.0,27,,RUE SALNEUVE,8792,75017,75117,Paris 17e Arrondissement,75,,,75117000CH0019,,,18,,,,,,,,,,1,2,Appartement,22,2,,,,,,2.313917,48.885752,dvf_2023_75.csv,valeur_fonciere < 1 000 € (transfert symbolique)
2023-1359601,2023-12-04,000001,Vente,300.0,6,,RUE MARIE BENOIST,6070,75012,75112,Paris 12e Arrondissement,75,,,75112000CO0066,,,101,,,,,,,,,,1,2,Appartement,22,1,,,,,,2.393533,48.846406,dvf_2023_75.csv,valeur_fonciere < 1 000 € (transfert symbolique)
2023-1337894,2023-10-26,000001,Vente,1.0,11,,RUE DU CARDINAL MERCIER,1547,75009,75109,Paris 9e Arrondissement,75,,,75109000AB0048,,,69,,,,,,,,,,1,2,Appartement,22,1,,,,,,2.329877,48.88141,dvf_2023_75.csv,valeur_fonciere < 1 000 € (transfert symbolique)
2022-1682634,2022-10-14,000001,Vente,300.0,1,,PL PIERRE BRISSON,7412,75016,75116,Paris 16e Arrondissement,75,,,75116000FP0060,,,106,,,,,,,,,,1,2,Appartement,21,2,,,,,,2.299143,48.866245,dvf_2022_75.csv,valeur_fonciere < 1 000 € (transfert symbolique)
2022-1666867,2022-02-14,000001,Vente,660.0,44,,BD DU TEMPLE,9190,75011,75111,Paris 11e Arrondissement,75,,,75111000AN0010,,,55,,,,,,,,,,1,2,Appartement,21,1,,,,,,2.365765,48.865838,dvf_2022_75.csv,valeur_fonciere < 1 000 € (transfert symbolique)
2022-1643130,2022-02-08,000001,Vente,100.0,13,,RUE PRADIER,7779,75019,75119,Paris 19e Arrondissement,75,,,75119000EE0053,,,30,,,,,,,,,,1,2,Appartement,21,1,,,,,,2.381463,48.875406,dvf_2022_75.csv,valeur_fonciere < 1 000 € (transfert symbolique)
2023-1336961,2023-09-25,000001,Vente,500.0,44,,BD DE CLICHY,2113,75018,75118,Paris 18e Arrondissement,75,,,75118000AR0103,,,53,,,,,,,,,,1,2,Appartement,21,1,,,,,,2.335913,48.883216,dvf_2023_75.csv,valeur_fonciere < 1 000 € (transfert symbolique)
2023-1332084,2023-06-21,000001,Vente,150.0,45,,RUE SAINT-SAUVEUR,8752,75002,75102,Paris 2e Arrondissement,75,,,75102000AM0147,,,67,,,,,,,,,,1,2,Appartement,20,1,,,,,,2.347855,48.866033,dvf_2023_75.csv,valeur_fonciere < 1 000 € (transfert symbolique)
2023-1336635,2023-09-28,000001,Vente,1.0,1,,RUE JEAN LECLAIRE,4907,75017,75117,Paris 17e Arrondissement,75,,,75117000DN0066,,,26,,,,,,,,,,1,2,Appartement,20,1,,,,,,2.325279,48.893623,dvf_2023_75.csv,valeur_fonciere < 1 000 € (transfert symbolique)
2022-1652137,2022-06-29,000001,Vente,1.0,10,,RUE RODIER,8299,75009,75109,Paris 9e Arrondissement,75,,,75109000AZ0052,,,148,,,,,,,,,,1,2,Appartement,19,1,,,,,,2.342791,48.877781,dvf_2022_75.csv,valeur_fonciere < 1 000 € (transfert symbolique)
2022-1661121,2022-11-07,000001,Vente,3.0,9,,RUE ARISTIDE BRUANT,0444,75018,75118,Paris 18e Arrondissement,75,,,75118000AS0191,,,36,,,,,,,,,,1,2,Appartement,18,1,,,,,,2.335185,48.885553,dvf_2022_75.csv,valeur_fonciere < 1 000 € (transfert symbolique)
2022-1650025,2022-06-08,000001,Vente,10.0,6,,RUE FRANCIS CARCO,3786,75018,75118,Paris 18e Arrondissement,75,,,75118000CK0009,,,29,,,,,,,,,,1,2,Appartement,18,1,,,,,,2.356439,48.889068,dvf_2022_75.csv,valeur_fonciere < 1 000 € (transfert symbolique)
2022-1664035,2022-12-28,000001,Vente,100.0,14,,RUE SAINTE FOY,8561,75002,75102,Paris 2e Arrondissement,75,,,75102000AP0125,,,183,,,,,,,,,,1,2,Appartement,18,1,,,,,,2.351252,48.868493,dvf_2022_75.csv,valeur_fonciere < 1 000 € (transfert symbolique)
2023-1334663,2023-07-27,000001,Vente,100.0,29,,RUE RODIER,8299,75009,75109,Paris 9e Arrondissement,75,,,75109000BA0080,,,29,,,,,,,,,,1,2,Appartement,18,1,,,,,,2.342884,48.879082,dvf_2023_75.csv,valeur_fonciere < 1 000 € (transfert symbolique)
2022-1651089,2022-06-20,000001,Vente,500.0,88,,RUE DAMREMONT,2534,75018,75118,Paris 18e Arrondissement,75,,,75118000AW0115,,,38,,,,,,,,,,1,2,Appartement,17,1,,,,,,2.335895,48.892491,dvf_2022_75.csv,valeur_fonciere < 1 000 € (transfert symbolique)
2023-1324674,2023-02-10,000001,Vente,150.0,101,,RUE DU FBG SAINT DENIS,3516,75010,75110,Paris 10e Arrondissement,75,,,75110000AP0055,,,211,,,,,,,,,,1,2,Appartement,17,1,,,,,,2.355141,48.874902,dvf_2023_75.csv,valeur_fonciere < 1 000 € (transfert symbolique)
2023-1345742,2023-03-27,000001,Vente,1.0,16,,RUE LAPLACE,5340,75005,75105,Paris 5e Arrondissement,75,,,75105000BL0056,,,48,,,,,,,,,,1,2,Appartement,17,1,,,,,,2.347388,48.847506,dvf_2023_75.csv,valeur_fonciere < 1 000 € (transfert symbolique)
2022-1661171,2022-11-07,000001,Vente,3.0,9,,RUE ARISTIDE BRUANT,0444,75018,75118,Paris 18e Arrondissement,75,,,75118000AS0191,,,37,,,,,,,,,,1,2,Appartement,17,1,,,,,,2.335185,48.885553,dvf_2022_75.csv,valeur_fonciere < 1 000 € (transfert symbolique)
2022-1661180,2022-11-07,000001,Vente,1.0,9,,RUE ARISTIDE BRUANT,0444,75018,75118,Paris 18e Arrondissement,75,,,75118000AS0191,,,35,,,,,,,,,,1,2,Appartement,17,1,,,,,,2.335185,48.885553,dvf_2022_75.csv,valeur_fonciere < 1 000 € (transfert symbolique)
2023-1325464,2023-03-01,000001,Vente,1.0,7,,RUE CADET,1407,75009,75109,Paris 9e Arrondissement,75,,,75109000AY0056,,,226,,227,,228,,231,,,,4,2,Appartement,17,2,,,,,,2.34255,48.874869,dvf_2023_75.csv,valeur_fonciere < 1 000 € (transfert symbolique)
2023-1338362,2023-11-17,000001,Vente,200.0,136,,RUE MONTMARTRE,6513,75002,75102,Paris 2e Arrondissement,75,,,75102000AI0024,,,51,,,,,,,,,,1,2,Appartement,16,1,,,,,,2.343697,48.868522,dvf_2023_75.csv,valeur_fonciere < 1 000 € (transfert symbolique)
2022-1673866,2022-06-02,000001,Vente,500.0,48,,RUE MONSIEUR LE PRINCE,6444,75006,75106,Paris 6e Arrondissement,75,,,75106000AK0064,,,12,,,,,,,,,,1,2,Appartement,16,1,,,,,,2.34023,48.84837,dvf_2022_75.csv,valeur_fonciere < 1 000 € (transfert symbolique)
2022-1646895,2022-04-15,000002,Echange,500.0,11,,RUE DU MARCHE ST HONORE,6034,75001,75101,Paris 1er Arrondissement,75,,,75101000AZ0026,,,32,,33,,,,,,,,2,2,Appartement,16,1,,,,,,2.331016,48.866396,dvf_2022_75.csv,valeur_fonciere < 1 000 € (transfert symbolique)
2023-1360658,2023-12-21,000002,Vente,100.0,48,,RUE DUNOIS,2992,75013,75113,Paris 13e Arrondissement,75,,,75113000BK0004,,,54,,,,,,,,,,1,2,Appartement,16,1,,,,,,2.368163,48.832172,dvf_2023_75.csv,valeur_fonciere < 1 000 € (transfert symbolique)
2022-1686214,2022-12-07,000001,Vente,500.0,54,,AV D ITALIE,4754,75013,75113,Paris 13e Arrondissement,75,,,75113000DZ0040,,,133,,,,,,,,,,1,2,Appartement,15,1,,,,,,2.356406,48.82751,dvf_2022_75.csv,valeur_fonciere < 1 000 € (transfert symbolique)
2023-1340810,2023-12-21,000001,Vente,801.0,27,,RUE SAUFFROY,8832,75017,75117,Paris 17e Arrondissement,75,,,75117000DH0137,,,52,,54,,,,,,,,2,2,Appartement,15,1,,,,,,2.321161,48.891914,dvf_2023_75.csv,valeur_fonciere < 1 000 € (transfert symbolique)
2022-1660590,2022-11-15,000001,Vente,500.0,74,,RUE DE TURBIGO,9504,75003,75103,Paris 3e Arrondissement,75,,,75103000AF0108,,,52,,,,,,,,,,1,2,Appartement,15,1,,,,,,2.360813,48.866318,dvf_2022_75.csv,valeur_fonciere < 1 000 € (transfert symbolique)
2023-1332537,2023-07-07,000001,Vente,2.0,11,,RUE DU QUATRE SEPTEMBRE,7930,75002,75102,Paris 2e Arrondissement,75,,,75102000AF0072,,,42,,45,,,,,,,,2,2,Appartement,15,1,,,,,,2.33749,48.869242,dvf_2023_75.csv,valeur_fonciere < 1 000 € (transfert symbolique)
2023-1332534,2023-07-07,000001,Vente,1.0,11,,RUE DU QUATRE SEPTEMBRE,7930,75002,75102,Paris 2e Arrondissement,75,,,75102000AF0072,,,41,,,,,,,,,,1,2,Appartement,15,1,,,,,,2.33749,48.869242,dvf_2023_75.csv,valeur_fonciere < 1 000 € (transfert symbolique)
2022-1669744,2022-03-21,000002,Vente,500.0,191,,RUE DE LA CROIX NIVERT,2459,75015,75115,Paris 15e Arrondissement,75,,,75115000BL0010,,,112,,,,,,,,,,1,2,Appartement,15,1,,,,,,2.289576,48.838076,dvf_2022_75.csv,valeur_fonciere < 1 000 € (transfert symbolique)
2023-1345560,2023-03-28,000001,Vente,200.0,148,,RUE DE GRENELLE,4314,75007,75107,Paris 7e Arrondissement,75,,,75107000AV0019,,,129,,130,,,,,,,,2,2,Appartement,15,1,,,,,,2.310648,48.858374,dvf_2023_75.csv,valeur_fonciere < 1 000 € (transfert symbolique)
2022-1670008,2022-04-06,000001,Vente,50.0,118,,RUE DU CHEMIN VERT,1966,75011,75111,Paris 11e Arrondissement,75,,,75111000BM0033,,,51,,,,,,,,,,1,2,Appartement,14,1,,,,,,2.383813,48.861769,dvf_2022_75.csv,valeur_fonciere < 1 000 € (transfert symbolique)
2023-1352386,2023-07-18,000001,Vente,800.0,4,,IMP POPINCOURT,7625,75011,75111,Paris 11e Arrondissement,75,,,75111000BK0010,,,136,,,,,,,,,,1,2,Appartement,14,1,,,,,,2.376881,48.859112,dvf_2023_75.csv,valeur_fonciere < 1 000 € (transfert symbolique)
2022-1641574,2022-01-10,000001,Vente,450.0,10,,RUE DU FBG SAINT DENIS,3516,75010,75110,Paris 10e Arrondissement,75,,,75110000AW0072,,,39,,,,,,,,,,1,2,Appartement,14,1,,,,,,2.353229,48.870159,dvf_2022_75.csv,valeur_fonciere < 1 000 € (transfert symbolique)
2023-1355744,2023-09-19,000001,Vente,1.0,4,,IMP POPINCOURT,7625,75011,75111,Paris 11e Arrondissement,75,,,75111000BK0010,,,130,,,,,,,,,,1,2,Appartement,14,1,,,,,,2.376881,48.859112,dvf_2023_75.csv,valeur_fonciere < 1 000 € (transfert symbolique)
2022-1660498,2022-11-07,000001,Vente,100.0,59,,RUE D AVRON,0610,75020,75120,Paris 20e Arrondissement,75,,,75120000DP0020,,,176,,,,,,,,,,1,2,Appartement,14,1,,,,,,2.40285,48.852398,dvf_2022_75.csv,valeur_fonciere < 1 000 € (transfert symbolique)
2022-1664110,2022-04-15,000001,Echange,300.0,73,,RUE LABAT,5188,75018,75118,Paris 18e Arrondissement,75,,,75118000BL0091,,,7,,,,,,,,,,1,2,Appartement,13,1,,,,,,2.345414,48.888469,dvf_2022_75.csv,valeur_fonciere < 1 000 € (transfert symbolique)
2023-1355718,2023-09-15,000001,Vente,51.0,38,,BD SAINT GERMAIN,8619,75005,75105,Paris 5e Arrondissement,75,,,75105000AB0115,,,73,,,,,,,,,,1,2,Appartement,13,1,,,,,,2.351391,48.849889,dvf_2023_75.csv,valeur_fonciere < 1 000 € (transfert symbolique)
2022-1683979,2022-10-10,000002,Vente,500.0,7,,RUE FRANCOIS MOUTHON,3807,75015,75115,Paris 15e Arrondissement,75,,,75115000BO0057,,,87,,,,,,,,,,1,2,Appartement,13,1,,,,,,2.292129,48.838586,dvf_2022_75.csv,valeur_fonciere < 1 000 € (transfert symbolique)
2022-1652383,2022-05-24,000001,Vente,1.0,42,,RUE DE MENILMONTANT,6270,75020,75120,Paris 20e Arrondissement,75,,,75120000BX0055,,,85,,,,,,,,,,1,2,Appartement,12,2,,,,,,2.386973,48.867811,dvf_2022_75.csv,valeur_fonciere < 1 000 € (transfert symbolique)
2023-1352810,2023-07-18,000001,Vente,500.0,34,T,RUE MOLITOR,6411,75016,75116,Paris 16e Arrondissement,75,,,75116000AN0006,,,78,,,,,,,,,,1,2,Appartement,12,1,,,,,,2.261222,48.845543,dvf_2023_75.csv,valeur_fonciere < 1 000 € (transfert symbolique)
2023-1339400,2023-12-07,000001,Vente,200.0,136,,RUE MONTMARTRE,6513,75002,75102,Paris 2e Arrondissement,75,,,75102000AI0024,,,58,,,,,,,,,,1,2,Appartement,12,1,,,,,,2.343697,48.868522,dvf_2023_75.csv,valeur_fonciere < 1 000 € (transfert symbolique)
2023-1326549,2023-03-30,000002,Echange,500.0,18,,RUE CADET,1407,75009,75109,Paris 9e Arrondissement,75,,,75109000AX0178,,,59,,,,,,,,,,1,2,Appartement,8,1,,,,,,2.343458,48.875012,dvf_2023_75.csv,valeur_fonciere < 1 000 € (transfert symbolique)
2022-1649092,2022-05-30,000001,Vente,150.0,261,,RUE DU FBG ST MARTIN,3522,75010,75110,Paris 10e Arrondissement,75,,,75110000AF0026,,,555,,,,,,,,,,1,2,Appartement,6,1,,,,,,2.367551,48.883668,dvf_2022_75.csv,valeur_fonciere < 1 000 € (transfert symbolique)
2023-1342833,2023-01-12,000001,Vente,1.0,28,,RUE CORVISART,2355,75013,75113,Paris 13e Arrondissement,75,,,75113000EQ0017,,,125,,,,,,,,,,1,2,Appartement,3,1,,,,,,2.347001,48.832208,dvf_2023_75.csv,valeur_fonciere < 1 000 € (transfert symbolique)
2022-1641280,2022-01-06,000001,Vente,300.0,3,,RUE POULET,7770,75018,75118,Paris 18e Arrondissement,75,,,75118000BT0026,,,157,,,,,,,,,,1,3,Dépendance,,0,,,,,,2.347966,48.886723,dvf_2022_75.csv,valeur_fonciere < 1 000 € (transfert symbolique)
2022-1641314,2022-01-11,000001,Vente,500.0,32,,RUE MULLER,6637,75018,75118,Paris 18e Arrondissement,75,,,75118000BL0155,,,53,,,,,,,,,,1,3,Dépendance,,0,,,,,,2.345342,48.88657,dvf_2022_75.csv,valeur_fonciere < 1 000 € (transfert symbolique)
2022-1642319,2022-01-13,000001,Vente,50.0,29,,RUE POISSONNIERE,7561,75002,75102,Paris 2e Arrondissement,75,,,75102000AH0062,,,34,,,,,,,,,,1,3,Dépendance,,0,,,,,,2.347495,48.869889,dvf_2022_75.csv,valeur_fonciere < 1 000 € (transfert symbolique)
2022-1642403,2022-01-28,000001,Vente,500.0,15,,AV DE WAGRAM,9933,75017,75117,Paris 17e Arrondissement,75,,,75117000AK0093,,,35,,,,,,,,,,1,3,Dépendance,,0,,,,,,2.296091,48.875857,dvf_2022_75.csv,valeur_fonciere < 1 000 € (transfert symbolique)
2022-1642550,2022-02-01,000001,Vente,1.0,160,,BD MALESHERBES,5951,75017,75117,Paris 17e Arrondissement,75,,,75117000BS0039,,,52,,,,,,,,,,1,3,Dépendance,,0,,,,,,2.305909,48.886739,dvf_2022_75.csv,valeur_fonciere < 1 000 € (transfert symbolique)
2022-1642649,2022-02-01,000001,Vente,401.0,15,,RUE VIGNON,9804,75008,75108,Paris 8e Arrondissement,75,,,75108000BS0101,,,56,,,,,,,,,,1,4,Local industriel. commercial ou assimilé,142,0,,,,,,2.325896,48.871222,dvf_2022_75.csv,valeur_fonciere < 1 000 € (transfert symbolique)
2022-1643047,2022-02-11,000001,Vente,1.0,64,B,RUE LA BOETIE,5194,75008,75108,Paris 8e Arrondissement,75,,,75108000CK0041,,,22,935.95,,,,,,,,,1,4,Local industriel. commercial ou assimilé,936,0,,,,,,2.311791,48.873484,dvf_2022_75.csv,valeur_fonciere < 1 000 € (transfert symbolique)
2022-1643093,2022-02-15,000001,Vente,500.0,7,,RUE SAINT LUC,8680,75018,75118,Paris 18e Arrondissement,75,,,75118000CG0168,,,36,,,,,,,,,,1,3,Dépendance,,0,,,,,,2.354125,48.886046,dvf_2022_75.csv,valeur_fonciere < 1 000 € (transfert symbolique)
2022-1643335,2022-02-09,000001,Vente,1.0,202,B,RUE DU FAUBOURG SAINT HONORE,3518,75008,75108,Paris 8e Arrondissement,75,,,75108000BC0044,,103,,,,,,,,,,,0,,Inconnu,,,,,,,,2.305659,48.875727,dvf_2022_75.csv,valeur_fonciere < 1 000 € (transfert symbolique)
2022-1643986,2022-02-23,000001,Vente,1.0,54,,RUE SAINT-GEORGES,8617,75009,75109,Paris 9e Arrondissement,75,,,75109000AG0066,,,85,,,,,,,,,,1,3,Dépendance,,0,,,,,,2.337654,48.877689,dvf_2022_75.csv,valeur_fonciere < 1 000 € (transfert symbolique)
2022-1644250,2022-03-09,000001,Vente,500.0,11,,RUE DU MARCHE ST HONORE,6034,75001,75101,Paris 1er Arrondissement,75,,,75101000AZ0026,,,200,,,,,,,,,,1,4,Local industriel. commercial ou assimilé,85,0,,,,,,2.331016,48.866396,dvf_2022_75.csv,valeur_fonciere < 1 000 € (transfert symbolique)
2022-1644397,2022-02-15,000001,Vente,1.0,31,,RUE DU BORREGO,1112,75020,75120,Paris 20e Arrondissement,75,,,75120000AW0089,,,4,,,,,,,,,,1,3,Dépendance,,0,,,,,,2.400597,48.873339,dvf_2022_75.csv,valeur_fonciere < 1 000 € (transfert symbolique)
2022-1644519,2022-03-15,000001,Vente,100.0,23,,RUE DE RICHELIEU,8212,75001,75101,Paris 1er Arrondissement,75,,,75101000AX0056,,,69,,,,,,,,,,1,3,Dépendance,,0,,,,,,2.33597,48.864847,dvf_2022_75.csv,valeur_fonciere < 1 000 € (transfert symbolique)
2022-1644614,2022-01-24,000001,Vente,150.0,11,,RUE VICTOR LETALLE,9771,75020,75120,Paris 20e Arrondissement,75,,,75120000BX0031,,,78,,,,,,,,,,1,3,Dépendance,,0,,,,,,2.385716,48.866713,dvf_2022_75.csv,valeur_fonciere < 1 000 € (transfert symbolique)
2022-1644697,2022-02-24,000001,Vente,1.0,202,B,RUE DU FAUBOURG SAINT HONORE,3518,75008,75108,Paris 8e Arrondissement,75,,,75108000BC0044,,69,,,,,,,,,,,0,,Inconnu,,,,,,,,2.305659,48.875727,dvf_2022_75.csv,valeur_fonciere < 1 000 € (transfert symbolique)
2022-1644957,2022-02-03,000002,Vente,100.0,30,,CRS ALBERT 1ER,0124,75008,75108,Paris 8e Arrondissement,75,,,75108000AK0032,,,110,,,,,,,,,,1,3,Dépendance,,0,,,,,,2.305945,48.865123,dvf_2022_75.csv,valeur_fonciere < 1 000 € (transfert symbolique)
2022-1645047,2022-02-28,000001,Vente,100.0,22,,RUE DES LOMBARDS,5738,75004,75104,Paris 4e Arrondissement,75,,,75104000AC0108,,,23,,24,,,,,,,,2,4,Local industriel. commercial ou assimilé,151,0,,,,,,2.349417,48.859403,dvf_2022_75.csv,valeur_fonciere < 1 000 € (transfert symbolique)
2022-1645318,2022-03-15,000001,Vente,1.0,36,,QUAI DE BETHUNE,0940,75004,75104,Paris 4e Arrondissement,75,,,75104000AU0009,,,57,,,,,,,,,,1,3,Dépendance,,0,,,,,,2.356429,48.8513,dvf_2022_75.csv,valeur_fonciere < 1 000 € (transfert symbolique)
